station_num,station_name,latitude,longitude
102,망원역 1번출구 앞,37.5556488,126.9106293
103,망원역 2번출구 앞,37.55495071,126.9108353
104,합정역 1번출구 앞,37.55062866,126.9149857
105,합정역 5번출구 앞,37.55000687,126.9148254
106,합정역 7번출구 앞,37.54864502,126.9128265
107,신한은행 서교동지점,37.55751038,126.9185028
108,서교동 사거리,37.55274582,126.9186173
109,제일빌딩 앞,37.54769135,126.9199829
111,상수역 2번출구 앞,37.54787064,126.9235306
112,극동방송국 앞,37.54920197,126.9232025
113,홍대입구역 2번출구 앞,37.5574379,126.9238205
114,홍대입구역 8번출구 앞,37.55706024,126.9244232
115,마스타 빌딩 앞,37.55893326,126.9271164
116,일진아이윌아파트 옆,37.56454086,126.9270706
117,홍은사거리,37.59115982,126.94133
118,광흥창역 2번출구 앞,37.54773331,126.9317627
119,서강나루 공원,37.54528427,126.9310532
120,신수동 사거리,37.54524231,126.9341126
121,마포소방서 앞,37.54976654,126.9331741
122,신성기사식당 앞,37.54745865,126.9383774
123,문화촌 공원,37.59432983,126.9473877
124,서강대 정문 건너편,37.55113983,126.9369888
125,서강대 남문 옆,37.54948425,126.9389496
126,서강대 후문 옆,37.55041122,126.9438477
127,현대벤처빌 앞,37.5535202,126.9369507
128,신촌역 2호선  1번출구 옆,37.55549622,126.9363403
129,신촌역 2호선  6번출구 옆,37.55505371,126.9375687
130,신촌역 2호선  7번출구 앞,37.55485916,126.9361572
131,증산2교,37.5841713,126.9111023
133,해담는다리,37.58203125,126.9089966
134,연세로 명물길,37.55789185,126.9380798
135,명물길 원형무대 앞,37.5591011,126.9391785
137,신촌기차역입구 교차로,37.55681229,126.9431839
138,신촌동 제1공영주차장 앞,37.5591774,126.9345245
139,연세대 정문 건너편,37.55986404,126.9344177
140,이화여대 후문,37.560009,126.9407349
141,연대 대운동장 옆,37.56238174,126.9326477
142,아현역 4번출구 앞,37.55720139,126.9556656
143,공덕역 2번출구,37.54457855,126.9502182
144,공덕역 8번출구,37.5435791,126.9513245
145,공덕역 5번출구,37.54425049,126.9516373
146,마포역 2번출구 뒤,37.53993607,126.9458237
147,마포역 4번출구 뒤,37.53927231,126.9459152
148,용강동 주민센터 앞,37.54234695,126.9430237
150,서강대역 2번출구 앞,37.55295563,126.9343414
153,성산2교 사거리,37.56469727,126.9126129
154,마포구청역,37.56090927,126.9054947
155,가좌역1 번출구 뒤,37.56829453,126.9150467
156,서울서부지방법원 앞,37.54933167,126.9549179
157,애오개역 4번출구 앞,37.5530014,126.9566879
159,이대역 4번 출구,37.55695343,126.9463425
160,북아현동 가구거리,37.55754852,126.9593811
161,무악재역1번 출구,37.58224487,126.9506455
162,봉원고가차도 밑,37.56526947,126.9462433
163,명지전문대학교 정문 앞,37.58369827,126.9249649
164,북가좌1동 주민센터,37.57447815,126.9100494
165,중앙근린공원,37.57513809,126.9139404
166,가재울 초등학교,37.57381821,126.9192352
167,연가초등학교 옆,37.57946014,126.9171295
169,북가좌 삼거리,37.57300186,126.9077988
170,DMC파크뷰자이아파트 302동 앞,37.57311249,126.9224472
171,임광빌딩 앞,37.56472397,126.9672775
173,서대문역 8번출구 앞,37.56477737,126.9661484
175,홍연2교옆,37.57806778,126.9308853
176,명지대학교 도서관,37.58109665,126.9240265
177,북가좌 초등학교,37.57767487,126.9098053
178,증산3교 앞,37.57987595,126.9063492
179,가좌역 4번출구 앞,37.56912231,126.9147949
180,충정로역 7번출구 아래,37.55996704,126.9624634
181,망원초록길 입구,37.55134201,126.9026718
182,망원2빗물펌프장 앞,37.5513649,126.9030609
183,하늘채코오롱아파트 건너편,37.56516647,126.9193955
184,7번가피자 서교망원점,37.55894852,126.907753
185,마포 신수공원 앞,37.54254532,126.9342957
186,월드컵공원,37.56396484,126.8982086
188,홍은동 정원여중 입구,37.58638763,126.9351273
191,서우빌딩,37.57889175,126.9107361
192,연서어린이공원,37.57222748,126.9230652
194,증산교 앞,37.57731628,126.9029694
195,모래내고가차도,37.56765747,126.9178085
196,연희교차로 인근,37.56612015,126.9258957
198,충정2교,37.5621376,126.9637756
199,서울 월드컵 경기장,37.56684494,126.8964462
200,국회의원회관,37.52841568,126.9139175
201,진미파라곤 앞,37.53123856,126.9213333
202,국민일보 앞,37.52881622,126.92453
203,국회의사당역 3번출구 옆,37.5280571,126.9187012
204,국회의사당역 5번출구 옆,37.52816391,126.9170227
205,산업은행 앞,37.52626419,126.9205093
206,KBS 앞,37.52466583,126.9180222
207,여의나루역 1번출구 앞,37.52715683,126.9319
209,유진투자증권빌딩 앞,37.52461243,126.9278336
211,여의도역 4번출구 옆,37.52222824,126.9246368
212,여의도역 1번출구 옆,37.5213623,126.9234619
213,KT앞,37.52190781,126.9189529
214,금융감독원 앞,37.5230217,126.9208374
215,여의도고교 앞,37.52483749,126.934906
217,NH농협은행 앞,37.52207947,126.9303665
219,롯데캐슬엠파이어 옆,37.52069473,126.9258347
220,미성아파트 A동 앞,37.5193634,126.9260483
221,여의도초교 앞,37.52267456,126.9377899
222,시범아파트버스정류장 옆,37.51943588,126.9375992
223,진주아파트상가 앞,37.51931381,126.9331665
224,롯데캐슬 앞,37.5200882,126.9323654
225,앙카라공원 앞,37.51736832,126.9292526
226,샛강역 1번출구 앞,37.51776505,126.9284134
227,양평2나들목 보행통로 입구,37.54466629,126.8883591
228,선유도역 3번출구 앞,37.53845978,126.8945084
229,양평1 보행육교 앞,37.53587341,126.8921814
230,영등포구청역 1번출구,37.52463531,126.8962174
231,남부고용노동지청 남측,37.52450562,126.8918228
232,양평우림 이비즈센타 앞,37.52565002,126.8878174
233,양평1동 YP센터 앞,37.52848816,126.8916473
234,영등포구민체육센터 앞,37.50046158,126.9058456
235,신길동 우리은행 옆,37.50456619,126.9102325
236,문래동자이아파트 앞,37.51615524,126.8946152
237,보라매 두산위브 건너편,37.49651337,126.9148026
238,제2구민체육센타 앞,37.52638626,126.9027557
239,유스호스텔 앞,37.5258522,126.9032822
240,문래역 4번출구 앞,37.51873779,126.8955765
241,신길우성1차아파트 앞 공원,37.50501633,126.8985367
242,신길선원가와인아파트 앞,37.51093292,126.9102249
243,이앤씨드림타워 앞,37.52708435,126.8913803
244,영등포삼환아파트 앞,37.53007889,126.9057083
245,삼성생명 당산사옥 앞,37.52826309,126.8966293
247,당산역 10번출구 앞,37.53368759,126.9021072
248,초원아파트 앞,37.53105545,126.9242096
249,여의도중학교 옆,37.52434921,126.9361191
250,대림아파트 사거리,37.50764084,126.9230804
251,서울지방병무청 버스정류장,37.50449371,126.9219513
252,보라매역4번출구,37.49982834,126.9199448
253,신풍역 5번출구 인근,37.5006485,126.9095154
254,도림신협 앞,37.50380325,126.9034195
255,도림사거리,37.50657272,126.9011307
256,동아에코빌입구,37.50947571,126.8992996
258,신길역3번출구,37.51769257,126.914299
259,대방역6번출구,37.51359177,126.9259338
260,여의도 마리나선착장 앞,37.53365707,126.9121628
262,영문초등학교 사거리,37.51992798,126.889183
263,근로자회관 사거리,37.51715088,126.8886261
264,교보생명보험 앞,37.52193069,126.8916168
265,영등포유통상가 사거리,37.52113342,126.8965378
266,영등포청과시장 사거리,37.52029419,126.9011917
267,삼성화재 사옥 옆,37.53596115,126.8983002
268,그랜드컨벤션센터 앞,37.53471756,126.9000015
270,증권거래소후문교차로,37.52234268,126.9271011
271,샛강생태공원방문자센터 앞,37.51896286,126.9216156
272,당산육갑문,37.53533936,126.9036789
274,영등포역지하쇼핑센타 5번출구,37.51626968,126.9068604
275,신동아아파트,37.52222061,126.885582
276,SK 영등포주유소,37.51828384,126.9126358
277,영등포뉴타운지하상가 2번게이트,37.52011871,126.9051666
278,쌍용플레티넘오피스텔,37.50793076,126.8952332
279,영등포 푸르지오 아파트,37.51322937,126.9044647
280,양평동6차현대아파트 앞,37.53210068,126.8944397
281,신동아아파트 앞,37.49824142,126.8939819
282,신한은행 대림동지점,37.48752975,126.9048767
283,아크로타워 스퀘어 영등포시장 ,37.52251816,126.9072189
284,센트럴 푸르지오 시티 앞,37.51821136,126.9022293
285,대림3동사거리 하나은행 ,37.49985886,126.8972397
286,우성아파트 교차로,37.49457169,126.8997498
287,영등포전화국사거리  서강어린이공원 ,37.52576828,126.9057388
288,쌍용예가 구청별관 ,37.52809906,126.8933868
289,대림3동사거리,37.49980927,126.8980026
290,당산동 SK V1 빌딩,37.5315094,126.8978272
291,문래동 하이테크 시티,37.51385117,126.89888
292,영일 어린이공원,37.51012039,126.904068
293,충북 미래관,37.52917099,126.9075775
295,영등포공원 분수대 앞,37.51481247,126.911705
296,KT플라자 영등포점,37.52630234,126.9053803
297,국회3문,37.52863693,126.912674
298,KBS 연구동 건너편,37.52750778,126.914299
299,여의도 순복음교회,37.53179169,126.9224548
300,정동사거리,37.56805038,126.9692307
301,경복궁역 7번출구 앞,37.57579422,126.9714508
302,경복궁역 4번출구 뒤,37.57594681,126.9740601
303,광화문역 1번출구 앞,37.57176971,126.9746628
306,광화문역 7번출구 앞,37.57080841,126.9764328
307,서울역사박물관 앞,37.56999969,126.9710999
308,광화문 S타워 앞,37.56996918,126.973938
309,광화문역 6번출구 옆,37.56996155,126.9761581
310,청계광장 옆,37.56887817,126.9774704
314,국립현대미술관,37.5797081,126.9808579
316,종각역 1번출구 앞,37.57039642,126.9817886
318,광교사거리 남측,37.56863403,126.9823151
320,을지로입구역 4번출구 앞,37.56622314,126.9835892
321,KEB 하나금융그룹 명동사옥 옆,37.56546402,126.9841385
322,명동성당 앞,37.56447601,126.986969
324,신세계백화점 본점 앞,37.56143188,126.9806976
326,안국역 5번출구 앞,37.57624054,126.9861603
327,낙원상가 옆,37.57335663,126.9874649
328,탑골공원 앞,37.57039642,126.9881897
329,청계2가 사거리 옆,37.56848526,126.9878845
331,을지로2가 사거리 북측,37.56638336,126.9872055
332,을지로2가 사거리 남측,37.56599045,126.987793
334,종로3가역 2번출구 뒤,37.5705986,126.9917908
335,종로3가역 15번출구 앞,37.57019806,126.9912567
336,티마크 호텔 앞,37.5614624,126.9931107
337,창경궁 입구,37.57897949,126.9964752
338,세운스퀘어 앞,37.57095718,126.9971237
339,종로4가 사거리,37.57106781,126.9981918
340,혜화동 로터리,37.58562851,127.000679
341,혜화역 3번출구 뒤,37.58156967,127.0017853
342,대학로 마로니에공원,37.57978439,127.002533
343,예일빌딩 율곡로  앞,37.57543182,127.004982
344,성균관대 E하우스 앞,37.57403564,127.0067215
345,서울보증보험본사 앞,37.57330704,127.0007095
346,맥스타일 앞,37.56918335,127.0098801
347,동대문역사문화공원역 9번출구 앞,37.56533051,127.007843
348,독립문역 사거리,37.57202911,126.9607849
349,사직동주민센터,37.57633209,126.9685898
351,청운초교 앞 삼거리,37.58507919,126.9706192
352,중앙고입구 삼거리,37.58341599,126.9852371
353,재동초교 앞 삼거리,37.57938766,126.9849472
354,포르투갈 대사관 앞,37.57915497,126.9889603
355,서울사대부속초교 앞,37.57650757,127.0024567
356,KT혜화지사 앞,37.57714462,127.0020599
358,성대입구 사거리,37.58250046,126.9985352
359,원남동사거리,37.57606125,126.9976807
361,동묘앞역 1번출구 뒤,37.57324219,127.0159073
362,청계8가 사거리,37.57222366,127.0227051
363,신설동역 11번출구 뒤,37.57559204,127.02285
364,창신역 1번출구 앞,37.57933426,127.0150833
367,독립문역 3-1번출구,37.57384872,126.9586945
368,SK 서린빌딩 앞,37.5692482,126.9805374
369,광화문 시민열린마당,37.57549286,126.9785004
370,시청역 2호선  9번출구 뒤,37.56322861,126.9748383
371,동대입구역 6번출구 뒤,37.55887222,127.0055389
372,약수역 3번출구 뒤,37.55429459,127.0112
374,청구역 2번출구 앞,37.5604744,127.0140762
379,서울역9번출구,37.55599976,126.9733582
380,CJ제일제당 앞,37.56386566,127.0027466
381,장충체육관,37.55853271,127.0069885
382,약수역 10번출구 앞,37.55519867,127.0100479
383,신당역 12번 출구 뒤,37.5658493,127.0164032
384,종로학원본원,37.55978012,126.9685059
385,종각역 5번출구,37.56983566,126.9826584
387,훈련원공원주차장 앞,37.56699371,127.0034638
388,동성중학교 앞,37.58573532,127.0016098
389,을지로4가역 1번출구,37.5667305,126.9966049
390,충무로역 1번출구,37.56138992,126.9953537
391,시립미술관,37.56505203,126.9734039
393,동대문역 8번 출구,37.57014084,127.0093765
394,경희궁 자이 3단지,37.56748962,126.9659195
395,경희궁 자이 2단지,37.56885529,126.9645615
397,종묘공영주차장 건너편,37.57048035,126.9966354
398,을지로3가역 3번출구,37.56655884,126.9924393
399,서울역 센트럴 자이아파트,37.55410767,126.9654083
400,상암한화오벨리스크 1차 앞,37.58752441,126.8830032
401,상암월드컵파크 10단지 앞,37.58618927,126.8816147
402,상암월드컵파크 9단지 앞,37.58285522,126.8798218
403,부엉이공원 앞,37.58559036,126.8847275
405,DMC빌 앞,37.58265686,126.885788
406,상암월드컵파크 7단지 앞,37.58131409,126.8805847
407,마포구 육아종합지원센터,37.58063126,126.8836746
408,LG CNS앞,37.58081055,126.8866501
409,누리꿈스퀘어 옆,37.57939911,126.8891602
410,상암중학교 옆,37.57749557,126.8877716
411,DMC홍보관,37.5779953,126.8914719
412,DMC산학협력연구센터 앞,37.57580185,126.8907394
413,상암월드컵파크 3단지 후문,37.57147598,126.8896866
414,상암동주민센터 옆,37.57822037,126.8944702
415,DMC역 9번출구 앞,37.57746887,126.8973618
416,상암월드컵파크 1단지 교차로,37.57566452,126.8944473
417,DMC역 2번출구 옆,37.57506943,126.8999176
418,월드컵경기장역 3번출구 옆,37.57072067,126.8989792
419,홈플러스 앞,37.56842041,126.8994293
420,서울시 공공자전거 상암센터,37.56624603,126.8961792
421,마포구청 앞,37.56574631,126.9018631
422,문화비축기지,37.56897736,126.8944016
424,롯데하이마트  상암월드컵점 ,37.57361984,126.8980484
425,DMC첨단산업센터,37.58450317,126.8855972
426,서울신용보증재단,37.54906082,126.9541779
427,성산시영아파트,37.56958389,126.9038162
428,명보사거리,37.56439972,126.9914322
429,송도병원,37.54988861,127.0073471
430,KEB하나은행 장충동지점,37.56217194,127.0062637
431,청계천 영도교,37.5710144,127.0197449
432,마포중앙도서관,37.56333923,126.9082031
433,을지로입구역 2번출구,37.56634521,126.9822922
434,신당 래미안 버스정류장,37.56148911,127.0239334
435,SK 남산빌딩,37.55686188,126.9756165
436,이대역 5번출구,37.55659103,126.9461899
437,대흥역 1번출구,37.54846954,126.9409256
438,성산2-1 공영주차장,37.56472015,126.9067688
439,마포어린이공원,37.53552246,126.9439087
440,하늘공원 입구,37.57012177,126.8813477
441,염천교사거리,37.55989075,126.9714966
442,서울역 서부,37.55641556,126.9691925
443,호암아트홀,37.5621109,126.9707184
445,대한상공회의소,37.56015396,126.9741058
446,상명대입구,37.60012817,126.9578323
447,신영동삼거리,37.60399246,126.9619446
449,일성아파트,37.60871887,126.9728622
450,효자동 삼거리,37.58360291,126.9725494
451,청와대앞길,37.58351517,126.9796677
452,동대문 종합시장 버스정류장,37.57123947,127.0044098
453,종로오가 지하쇼핑센터 14번출구,37.57114029,127.0006714
454,종로2가 버스정류장  종각방향 ,37.57035828,126.9863815
455,종로6가역 버스정류장 동대문 방향 ,37.570961,127.0060577
456,숭인2동 주민센터 입구,37.57447052,127.0198288
457,종로꽃시장 입구 옆,37.57131958,127.0072098
458,광화문역 5번출구,37.56989288,126.9775696
461,서울지방경찰청,37.57436371,126.9723663
462,신영동삼거리 북악터널방향 ,37.60351181,126.9620667
464,삼청동 골목,37.58419037,126.9816971
465,삼청공원 앞,37.58760452,126.9835968
466,롯데호텔,37.56584167,126.9798126
467,한국은행,37.5622139,126.9808655
468,웨스틴 조선호텔,37.56415939,126.9794846
469,회현역 1번출구,37.5592308,126.9801407
470,회현역 7번출구,37.55974579,126.9800034
471,회현사거리 남측,37.56035995,126.9826508
472,삼일교 시그니쳐 타워 ,37.56787109,126.9884033
473,을지로4가역 9번출구,37.56605148,126.9979858
474,동대문역사문화공원역 1번출구 뒤편,37.56629944,127.0084915
475,ddp패션몰,37.56764984,127.0118103
476,광희문,37.56443024,127.0099564
477,앰배서더 호텔 주변,37.55928802,127.0026856
479,동대입구역 3번 출구,37.55937576,127.0060272
480,약수역 6번 출구,37.55432129,127.010704
481,신당역 10번 출구,37.56703186,127.0157929
483,남산타운아파트 버스정류장,37.54758453,127.0064392
484,도동삼거리,37.55614853,126.9774246
485,서울역4번출구,37.55677032,126.9731979
486,평창동주민센터 앞,37.60627365,126.9683228
487,신석초교앞 교차로 교통섬,37.54364014,126.9383087
488,푸르메병원,37.58456802,126.8802109
489,구룡근린공원,37.58320236,126.8827667
490,가온문화공원,37.58207703,126.8876648
491,월드컵파크 4단지,37.57597733,126.8880692
492,성산시영아파트 후문,37.57313538,126.9018478
493,홍대입구역 6번출구,37.55657578,126.9288559
494,신수동주민센터,37.54724503,126.9350281
495,염리초등학교 앞,37.54243088,126.9469986
497,합정동주민센터 앞,37.551754,126.9123001
498,연남동주민센터 앞,37.56465149,126.9221268
500,어린이대공원역 3번출구 앞,37.54706955,127.0742722
501,광진구의회 앞,37.53730774,127.0703507
502,뚝섬유원지역 1번출구 앞,37.53186035,127.0671921
505,자양사거리 광진아크로텔 앞,37.53701019,127.0822449
506,금호 어울림 아파트 앞,37.54906082,127.0577927
507,성수아이에스비즈타워 앞,37.54820251,127.0571137
508,성수아카데미타워 앞,37.54516602,127.0575104
509,이마트 버스정류소 옆,37.53965378,127.0525894
510,서울숲 남문 버스정류소 옆,37.54122162,127.0438004
511,서울숲역 4번 출구 옆,37.54458237,127.0446091
512,뚝섬역 1번 출구 옆,37.5485611,127.0450058
513,뚝섬역 5번 출구 정류소 옆,37.54630661,127.0498047
514,성수사거리 버스정류장 앞,37.54257965,127.0633087
515,광양중학교 앞,37.53023529,127.0868301
516,광진메디칼 앞,37.54840469,127.0693665
518,청계천 박물관 앞,37.57152557,127.0353546
519,양지사거리,37.56699371,127.0299149
520,상왕십리역 4번 출구 앞,37.56385803,127.0303192
521,왕십리역 11번 출구 앞,37.56144714,127.0349197
522,금호역 1번출구 앞,37.5486412,127.0164261
523,옥수동성당 옆,37.54366302,127.014061
524,래미안금호하이리버 아파트 102동 옆,37.55220032,127.0250549
525,한양대병원사거리,37.55805206,127.0403519
526,용답토속공원 앞,37.56351089,127.0567246
529,장한평역 8번 출구 앞,37.56137085,127.0636597
530,청계벽산아파트 앞,37.56874847,127.0304031
533,금남시장 교차로,37.54814911,127.0210877
534,금호사거리,37.54863358,127.0257263
535,응봉삼거리,37.5539856,127.0335922
536,행당역 2번출구 앞,37.55735016,127.029213
537,한양대후문역 부근,37.56035614,127.0413971
538,답십리역 8번출구 앞,37.56764984,127.0511551
539,군자교교차로,37.55979538,127.0742035
540,군자역 7번출구 베스트샵 앞,37.55603027,127.0786438
542,강변역 4번출구 뒤,37.53546524,127.0944824
543,구의공원 테크노마트 앞 ,37.53596878,127.0946732
544,광남중학교,37.54072952,127.1029053
546,잠실대교북단 교차로,37.53247833,127.0850906
548,자양나들목,37.5297699,127.0748596
549,아차산역 3번출구,37.55122375,127.0897064
550,서울시설공단 앞,37.57164001,127.0356598
551,구의삼성쉐르빌 앞,37.54006195,127.0944977
552,대림아크로리버 앞,37.53657913,127.0929718
553,중곡 성원APT 앞,37.57125473,127.0798035
555,구의3동주민센터,37.53784943,127.0921707
556,달맞이공원,37.54205322,127.020401
557,도선동 주민센터 앞,37.56764221,127.0256958
558,성동광진 교육지원청 앞,37.56460571,127.0365219
559,왕십리역 4번 출구 건너편,37.56109619,127.0367966
560,비전교회 앞,37.55120468,127.0689316
561,서울숲역 2번출구 앞,37.54281616,127.0446701
562,군자지하보도 앞,37.55924606,127.07341
563,성동세무서 건너편,37.5479126,127.0627518
564,금호역 3번출구,37.54792786,127.0155716
565,옥수역 3번출구,37.54136658,127.0177612
567,성수역 2번출구 앞,37.54459,127.0570831
568,청계8가사거리 부근,37.57110214,127.0235596
569,응봉현대아파트 정류소,37.54958344,127.0302429
571,어린이대공원역6번출구,37.55039597,127.0758591
572,국립정신 건강센터 앞,37.5653801,127.0865097
573,구의문주차장 앞,37.54523087,127.0847321
574,아차산역4번출구,37.55184937,127.0889816
575,대원중고교 입구 대하빌딩 ,37.56429291,127.086937
576,광나루역 3번 출구,37.54483032,127.1042633
577,광진청소년수련관,37.54654694,127.1061325
578,성동세무서 부근,37.54829025,127.0624619
579,마장역 4번출구,37.56520462,127.0418472
582,경일중학교 앞,37.54317856,127.0490799
583,청계천 생태교실 앞,37.56797028,127.0468903
584,광진광장 교통섬,37.54782867,127.0726318
585,성수2가1동 공영주차장 인근,37.53680801,127.0554886
586,마장동 주민센터,37.56594086,127.0453949
587,유니베라 앞,37.54541779,127.0526428
588,뚝섬 유원지역,37.53268814,127.0674973
589,성수역3번출구,37.54415894,127.0566559
590,건국대학교  입학정보관 ,37.53989029,127.0733643
591,건국대학교  행정관 ,37.54277802,127.0753708
592,건국대학교 학생회관,37.54191208,127.0776367
593,자양중앙나들목,37.52858734,127.0778732
594,중랑물재생센터 서울새활용플라자 ,37.55836487,127.0569077
600,휘경2동 주민센터,37.58991241,127.0686798
601,용신동주민센터,37.57594681,127.0373612
602,장안동 사거리,37.57217407,127.0713882
604,답십리초등학교 옆 공원,37.56965637,127.0559616
605,신설동역8번출구,37.57419968,127.0264969
606,휘경공고앞,37.58462524,127.0702896
607,신이문역 2번출구,37.60271072,127.0678635
608,전농삼성아파트,37.58131027,127.0553436
609,제기2교,37.58774567,127.037384
610,동대문중 교차로,37.57308578,127.0521622
612,시립동부병원 앞 사거리,37.57366562,127.0308151
613,신설동역 10번출구 앞,37.57527161,127.023468
614,용두동 사거리,37.57768631,127.0310135
615,용두동 래미안허브리츠아파트 앞,37.57638168,127.0351105
616,서울시립대 앞,37.58256149,127.0543671
617,청솔우성아파트 앞,37.57420349,127.0576935
621,동대문중학교 옆,37.57489014,127.0535355
622,전농사거리 교통섬,37.57779312,127.0578308
623,서울시립대 정문 앞,37.58369827,127.0538559
624,전농동 동아아파트 앞,37.57418823,127.0458908
625,답십리초등학교 앞 현대시장 옆 ,37.56819153,127.0571747
626,군자교 서측 녹지대,37.56115341,127.0709686
627,장안동삼거리 교통섬,37.57863235,127.071907
628,휘봉고등학교 앞,37.58681488,127.067543
630,동대문구 보건소,37.57485199,127.0403061
631,답십리역 1번출구,37.5681839,127.0512772
633,청량리 기업은행 앞,37.58040619,127.0448227
634,외국어대 정문 앞,37.59601974,127.0598297
635,시조사 앞  청량고정문 옆 ,37.58751678,127.0527725
636,세종대왕기념관 교차로,37.59090042,127.0425873
637,KAIST 경영대학 앞,37.59161377,127.0457916
638,서울시립대 정보기술관,37.58300781,127.0609741
639,서울시립대 후문,37.58519745,127.0609512
640,청량리역 2번 출구,37.58255005,127.0446014
641,용두역 4번출구,37.57375336,127.0385361
642,신답역 사거리,37.57035446,127.0484314
643,동대문구민체육센터  육교아래 ,37.56697083,127.074295
646,장한평역 1번출구  국민은행앞 ,37.56196594,127.0645065
647,신이문역 1번출구,37.60279846,127.0672684
648,장안동위더스빌옆,37.56669998,127.0624237
650,중랑교사거리,37.59153366,127.0677414
652,답십리 래미안엘파인아파트 입구,37.57653046,127.0659409
654,전농동 텃골공원,37.57762146,127.0521088
656,영휘원 교차로,37.58723831,127.0431366
657,동대문롯데캐슬아파트 앞,37.57551956,127.0487747
658,촬영소 사거리,37.57288361,127.0660477
659,제기역1번출구,37.57835007,127.0333862
660,동의보감타워,37.57799911,127.0376282
661,경희대학교 청운관,37.59460068,127.0519714
663,외대앞역 4번출구,37.59489059,127.0630264
664,서울시립대 건설공학관,37.58412933,127.0579376
665,이문동 쌍용아파트 정문,37.59960556,127.0686417
666,이문대성유니드아파트 앞,37.60362244,127.0708313
667,청량차도 육교 밑,37.58659363,127.0469971
668,서울축산농협 장안지점 ,37.56799698,127.068779
669,청계신한신휴플러스앞 삼거리,37.57214737,127.0446091
670,삼육서울병원 버스정류장,37.58968735,127.061409
671,대광빌딩,37.57734299,127.0233765
672,대광고등학교,37.57875061,127.024025
673,안암골벽산아파트 후문 ,37.58407974,127.0310364
674,고대앞사거리 교통섬,37.58655167,127.0331421
676,FITI시험연구원 앞,37.58143234,127.0354767
677,청량리역 4번 5번출구 사이,37.5801506,127.0457993
678,장안힐스테이트 아  앞,37.57655716,127.0743103
679,전농SK아파트 앞,37.57787704,127.0616837
680,꿈마루어린이도서관 앞,37.59238434,127.0574112
681,서울특별시 동부교육지원청 육교 ,37.5798378,127.0563736
700,KB국민은행 염창역 지점 앞,37.5468483,126.8727722
701,목동사거리 부근,37.53280258,126.8639298
702,목4동주민센터 옆,37.53254318,126.8687286
703,오목교역 7번출구 앞,37.52362823,126.8752441
704,남부법원검찰청 교차로,37.52325439,126.8649063
706,신정네거리역,37.5218811,126.8517532
708,서울출입국관리사무소 앞,37.51897049,126.8699646
709,신정3동 현장민원실 앞,37.51158524,126.8415604
710,금옥여고보도육교,37.50971222,126.8441696
711,신일해피트리아파트 앞,37.51705933,126.8484879
712,강월초교입구 사거리,37.51699829,126.8383179
713,양서중학교 옆,37.53304672,126.8299561
714,한국SGI 양천문화회관 앞,37.532547,126.8308029
716,신정6동 주민센터 인근,37.51731873,126.8643189
719,홍익병원앞 교차로,37.5303688,126.8642578
720,서울강월초등학교 앞,37.5161972,126.8348999
722,경서농협 버스정류장 우리은행신정동지점방향 ,37.52151108,126.8573837
723,SBS방송국,37.52916336,126.8727493
724,계남공원 입구 주출입구 좌측,37.51068115,126.857399
725,양강중학교앞 교차로,37.52433395,126.8505478
726,목동3단지 시내버스정류장,37.5343895,126.8695984
729,서부식자재마트 건너편,37.51037979,126.8667984
731,서울시 도로환경관리센터,37.5298996,126.8765411
732,신월중학교,37.53955078,126.8283005
733,신정이펜하우스314동,37.51409912,126.8310013
734,신트리공원 입구,37.51395035,126.8560562
735,영도초등학교,37.53637695,126.8715134
736,오솔길공원,37.52219009,126.8367004
737,장수공원,37.52256012,126.8494797
739,신월사거리,37.53620148,126.8277969
740,으뜸공원,37.53636932,126.8317108
741,화곡로 입구 교차로,37.53952026,126.8254013
742,등촌역 5번 출구 뒤,37.55073166,126.8645783
743,현대6차아파트 101동 옆,37.50889969,126.8426819
744,신목동역 2번 출구,37.54384232,126.8825455
745,강서초등학교,37.52228165,126.8396988
746,목동2단지 상가,37.53650284,126.8777466
747,목동3단지 상가,37.53458023,126.8756485
748,목동운동장,37.53025055,126.879303
749,이대목동병원보도육교,37.53722763,126.8866119
750,연의근린공원 건너편,37.51215744,126.8356247
752,성원2차 아파트,37.54218292,126.8633041
754,목동1단지아파트 118동 앞  월촌초등학교 정류소 옆,37.54114151,126.8766785
755,목동1단지아파트 상가 앞  월촌중학교 버스정류소 옆 ,37.5378685,126.8814087
756,목동주차장,37.52667999,126.8761673
757,신정이펜하우스 1단지아파트 입구 사거리,37.51427841,126.828743
758,한사랑교회 앞,37.51472092,126.8591995
759,보아스아파트 앞,37.52407074,126.8386002
760,잣절보도육교 아래,37.50682068,126.8442993
762,오목로 무중력지대 앞,37.52474213,126.8776627
763,목동11단지 아파트,37.51065826,126.8591614
764,목동청소년수련관,37.53102875,126.8758926
765,오목교역 3번출구,37.52477646,126.8754807
766,신목동역 3번출구,37.54394913,126.883461
767,신정숲속마을아파트,37.50574493,126.8363113
768,목동5단지아파트 501동,37.53566742,126.8815842
769,CBS방송국 앞,37.52785492,126.8746719
770,목동역5번출구 교통정보센터 앞,37.52571487,126.8648682
771,목동아파트 703동 앞,37.52820587,126.870163
773,염창역 3 4번 출구 사이,37.54670715,126.8745728
774,등촌역 4번 출구 ,37.54950714,126.867218
775,세종그랑시아 앞 102동 ,37.53837585,126.8638306
776,목마공원,37.53874207,126.8856812
777,신월6차보람아파트 앞,37.53012848,126.8347778
779,양천나눔누리센터,37.51854324,126.8538818
780,신정교 하부,37.5173378,126.8776474
781,신정보도육교 아래,37.51759338,126.8765564
782,서남병원 후문,37.51167297,126.8327408
785,양천구청 보건소 사잇길,37.51732635,126.8663025
786,목동아파트 8단지 상가동 앞,37.52007294,126.8683014
787,양천아파트 입구,37.50790405,126.862648
788,양천구청역 2번출구 옆,37.51228714,126.8652802
790,화곡고가 사거리,37.52760696,126.8487549
791,현대하이페리온,37.52490616,126.8697891
792,목동트라팰리스 웨스턴에비뉴,37.52537155,126.8709259
793,목동5단지아파트 534동,37.53302002,126.8778992
794,양천문화회관,37.51686478,126.8629608
795,양천 해누리타운,37.51584244,126.8641129
796,목동아파트 14단지 B상가 앞,37.5146637,126.8719406
797,목동아파트 1422동 1434동 사잇길,37.51515579,126.8724899
800,목월공원 앞,37.53243256,126.9547424
802,한강진역 2번 출구 앞,37.54115295,127.0022125
803,한남초교 앞 보도육교,37.53813934,127.004097
805,문배어린이공원 앞,37.53675842,126.9700012
806,전자랜드 본관 앞,37.5330658,126.9607315
807,서울역 12번 출구 앞,37.55227661,126.9726868
808,서빙고동 금호맨션 앞,37.520504,126.9897385
809,한남 유수지 복개주차장,37.53016663,127.0074387
810,이태원지하보도,37.53841019,126.9866486
811,녹사평역1번출구,37.53507996,126.9853821
812,용산전쟁기념관,37.53483963,126.9776611
813,삼각지역 3번출구,37.53351212,126.9722748
815,LIG강촌아파트 103동앞,37.51850891,126.9787979
816,신용산역 6번출구 앞,37.53014755,126.968483
817,삼각지역 4번출구 앞,37.53345108,126.9717331
818,숙명여대 입구 교차로,37.54489517,126.9693832
819,선린인터넷 고등학교,37.54165268,126.9705048
820,청파동입구 교차로,37.54902649,126.9719467
822,이촌1동 마을공원,37.52204132,126.9655228
823,효창동주민센터 앞,37.54232025,126.9619598
825,서빙고동 주민센터 앞,37.52033615,126.9942627
826,서울역 서부교차로2,37.55536652,126.9686432
827,국군복지단,37.54188538,126.97966
828,숙대입구역 8번,37.54407883,126.9720001
829,베르가모앞,37.52293015,126.9616928
830,청암자이아파트앞,37.53442383,126.9485703
831,이태원관광특구입구,37.53427887,126.9885635
832,이촌1동 주민센터 뒤,37.5212822,126.973465
834,효창공원앞역 3번출구 뒤,37.53900909,126.96138
835,남영역 건너편,37.54198074,126.9715424
836,현대자동차서비스 앞,37.53142166,126.9514999
837,한남나들목 입구,37.52906036,127.0067291
838,숙대입구역 4번출구,37.5444603,126.9723892
839,보광동 삼성리버빌아파트 앞,37.5240097,127.0014496
840,용산 파크타워 앞,37.52365112,126.9702683
841,신용산역 1번 출구,37.52960968,126.9688721
843,녹사평역 광장,37.53379822,126.9886704
844,이촌2동 동원베네스트 아파트 앞,37.5271492,126.9551621
845,용산 선인상가,37.53269958,126.9643784
846,용산중학교,37.54650116,126.9809494
848, 삼각지12번 출구,37.53488922,126.9756241
849, 삼각지 자이아파트,37.53607941,126.9734192
850, KCC용산월츠타워 ,37.53739929,126.9689255
851,효창 푸르지오 앞,37.54047775,126.9581146
852,청암자이APT 103동 ,37.53452682,126.9471817
853,용산역 맞은편,37.52856827,126.9656906
854,HID 유족동지회 앞,37.53872681,127.0015488
855,이촌역5번출구 앞,37.52272415,126.9727707
857,현대 안성타워,37.53502274,126.9980545
858,녹사평역3번 출구,37.53440857,126.9868927
859,남산공원 야외식물원 앞,37.54188538,126.9958649
860,LG한강 자이아파트 앞,37.52074814,126.9708252
863,이촌역2번 출구,37.52177048,126.977005
864,순천향대학병원 한남오거리 ,37.53514099,127.0060043
865,하얏트호텔 앞,37.54079437,126.9978485
866,브라운스톤 남산아파트,37.551548,126.9768601
867,서빙고역 광장 1번출구 ,37.51990891,126.9892349
869,노들섬 동측 앞,37.51729584,126.9591446
870,노들섬 서측 앞,37.51731873,126.9582977
900,은평예술회관,37.60394287,126.9276962
902,진관동 은빛초등학교,37.64310837,126.9182205
903,은평뉴타운 아이파크,37.64586639,126.9273911
904,은평뉴타운 푸르지오,37.64867401,126.9307022
905,구파발역 2번출구,37.63623428,126.9189987
906,연신내역 5번출구150M 아래,37.61721039,126.9195786
907,CJ 드림시티,37.59949112,126.9168625
908,구산역 4번출구,37.61318588,126.9173508
909,백련산 힐스테이트 3차,37.58699417,126.9228821
911,은평평화공원 역촌역4번출구 ,37.60558319,126.9229355
912,응암오거리,37.58966064,126.9169464
913,이마트 버스정류장 서부경찰서 방면 ,37.60070038,126.9201279
914,새절역 2번출구,37.59079742,126.9136505
915,증산역 4번출구,37.5843811,126.9098969
916,평생학습관 앞,37.60784912,126.9213257
917,녹번역 4번출구,37.60078049,126.9352112
919,서울혁신파크,37.60702515,126.9333115
921,신도고등학교,37.63001633,126.9190292
922,연신내역 4번출구,37.61780167,126.9219666
923,국민은행 연서지점,37.62094879,126.9256363
924,메뚜기다리,37.62851715,126.9295807
925,불광역 2번출구,37.60956573,126.9309769
927,연신내역 3번출구 인근,37.61785507,126.9225235
928,은평역사한옥박물관,37.64131546,126.9380417
930,구 서부경찰서 건너편,37.60166168,126.9203033
931,역촌파출소,37.60473633,126.9153366
932,예일여중,37.61000443,126.9163971
933,역촌종합시장 버스정류장 예일여고 방면 ,37.61248398,126.9148789
934,신사동 성당,37.59714127,126.9095993
937,상림마을 롯데캐슬2단지 옆,37.64585114,126.9237976
938,금암 문화공원,37.64468384,126.918457
939,은평구청 교차로,37.60169983,126.9274216
941,은평뉴타운 도서관,37.63722229,126.9333038
942,상림마을 생태공원,37.64408112,126.9292831
943,은평구청 보건소,37.60240173,126.9286499
945,기자촌 사거리,37.63414001,126.9323425
946,독바위역,37.61843872,126.9328842
947,연신내 선일하이츠빌 정류소,37.62266922,126.9199905
948,디지털미디어 시티역 4번출구,37.57720184,126.9023514
949,연신내역 1번 출구,37.61978149,126.9208069
950,구산역 2번 출구,37.60980225,126.9167938
952,서울연신중학교,37.62265015,126.9252472
953,서울연신초등학교,37.6257782,126.9288178
954,은평뉴타운구파발9단지,37.64260864,126.9214783
956,응암시장교차로,37.59441376,126.9180145
958,본 서부병원 버스정류장 은평 세무서 방면 ,37.60036087,126.9228134
959,구파발10단지 인근,37.6436615,126.9145584
960,구파발역 환승센터,37.63825226,126.9194565
961,불광역 9번 출구,37.61096954,126.9298096
962,은평뉴타운 힐데스하임,37.63925934,126.9189072
963,대호프라자아파트,37.61442947,126.932579
964,북한산힐스테이트 7차아파트,37.61654282,126.9251251
965,서울특별시 은평병원,37.59347916,126.9231873
966,서울혁신파크1,37.60903168,126.9346771
967,서울혁신파크2,37.60890961,126.9324188
968,은평뉴타운 상림마을 13단지,37.64208984,126.9294128
969,은평 지웰테라스,37.64339447,126.9321365
971,역촌 센트레빌 아파트,37.60232925,126.9065476
972,수색역,37.58216095,126.894928
973,제각말푸르지오 5-1단지 아파트,37.63734818,126.9358444
974,연신초등학교옆 마을마당,37.62672043,126.9290161
975,백련산 힐스테이트상가앞,37.59036255,126.9230118
976,진관고등학교앞,37.64350891,126.9241028
977,신도중학교앞,37.63310242,126.9315033
978,녹번 힐스테이트상가앞,37.60100937,126.9359283
979,원풍빌라앞,37.59186172,126.9060822
982,녹번초등학교 서오릉로 ,37.60412598,126.925087
984,상신초등학교앞 버스정류장,37.59580994,126.9102631
985,은평세무서 버스정류장 은평구청 방면 ,37.60119247,126.926384
989,신응교 가좌로  앞,37.59181213,126.9148331
991,흥국사 정류장,37.6567688,126.942009
992,북한산입구 정류장,37.65842819,126.9460602
993,은평뉴타운 온뜨락아파트앞,37.63028717,126.9195633
994,북한산생태공원입구 교통섬 ,37.61050797,126.9385376
995,은평다목적체육관,37.63140869,126.9254074
996,응암역 1번출구,37.59996796,126.9157257
1001,광진교 남단 사거리 천호공원 방면 ,37.54179382,127.1247482
1002,해공공원 천호동 ,37.5452652,127.1259384
1003,해공도서관앞,37.54395676,127.1254883
1004,삼성광나루아파트 버스정류장,37.55332947,127.1288681
1006,롯데캐슬 115동앞,37.55486679,127.1427994
1007,암사동 선사유적지,37.55955887,127.1308746
1008,암사역 3번출구 국민은행앞 ,37.54957581,127.127182
1009,천호역4번출구 현대백화점 ,37.53866577,127.1242447
1010,강동세무서,37.53450775,127.1384049
1011,LIGA 아파트 앞,37.53474426,127.1352844
1012,서울 상운차량,37.53600693,127.1227264
1013,강동구청역 1번 출입구,37.53071594,127.1209869
1015,샛마을 근린공원,37.55003738,127.1469116
1016,해뜨는 주유소옆 리엔파크 109동앞,37.55939865,127.1711807
1017,둔촌고교입구 교차로 길동주민센터 방면 ,37.53544617,127.1451874
1018,둔촌 주공 GS 맞은편,37.52458954,127.1354218
1019,다성이즈빌아파트 호원대 대각선 맞은편 ,37.52679443,127.1300583
1020,강동경찰서,37.52825165,127.1268005
1021,강일동 리슈빌 빌딩앞,37.56427383,127.1739731
1022,길동 사거리 초소앞 ,37.53377914,127.1379929
1023,한국종합기술사옥 앞,37.54998398,127.1747055
1024,강동구청 앞,37.52929688,127.1231537
1025,상일초등학교,37.54684067,127.1725159
1026,대명초교 입구 교차로,37.54653549,127.155838
1027,프라자 아파트 앞,37.53596115,127.1478195
1028,포레스 주상복합 빌딩,37.53310776,127.1227722
1029,성내어울터,37.53655624,127.1255341
1030,미호 플랜트 앞,37.52703094,127.1220627
1031,암사동 CBIS,37.55582047,127.1299133
1032,선사고등학교,37.55672836,127.136261
1033,고덕동 아남아파트,37.55793381,127.1447678
1034,고덕동 래미안 힐스테이트,37.5618782,127.1507874
1035,고덕역 4번출구,37.55509567,127.1552811
1036,고덕동 주양쇼핑,37.55199051,127.1533127
1037,강일리버파크 6단지,37.56256485,127.1776123
1038,강일 다솜 어린이 공원,37.56863785,127.1748047
1039,고덕초등학교,37.56129837,127.1678467
1041,묘곡초등학교,37.55916214,127.1533203
1042,강일리버파크 2~5단지,37.5685463,127.1770096
1044,굽은다리역,37.54540634,127.1426773
1047,강동 한신휴플러스,37.53647232,127.1371536
1048,둔촌어린이공원,37.53099442,127.1423721
1049,강일리버파크 10단지,37.561203,127.1802673
1050,둔촌역 3번 출입구,37.52678299,127.1355743
1051,강일중선사고 버스정류장 신암중학교 방면 ,37.55483627,127.1373215
1052,리싸이클시티,37.55644989,127.1568222
1053,동명근린공원 진입로  아리수로 ,37.56254578,127.1644821
1054,말우물 어린이 공원,37.56002808,127.1696777
1056,강일리버파크 7~11단지,37.56335449,127.1790543
1057,능골근린공원,37.55580902,127.1737442
1058,고덕숲 아이파크 1,37.55348206,127.1650543
1059,래미안 강동팰리스 102동 ,37.53822708,127.1317444
1060,천일초교 사거리,37.5446701,127.1326752
1061,천호초교 입구 사거리 일주빌딩 ,37.54689789,127.1346664
1062,고덕숲 아이파크 2,37.5510788,127.1625977
1063,강동롯데캐슬퍼스트 아파트 관리동 ,37.55666351,127.1427383
1064,중앙보훈병원역 1번출구,37.52779388,127.147644
1065,보훈병원 정문옆 중앙대영약국 ,37.53120804,127.1492691
1066,생태공원앞 교차로 조명탑 ,37.5377655,127.1520157
1067,한영중고앞사거리,37.54903412,127.1560516
1068,명일파출소,37.5536499,127.1562271
1069,강동경희대학교병원 입구,37.55305481,127.1568832
1070, 시립 고덕평생학습관,37.55570221,127.1579208
1071,명일근린공원공동체텃밭,37.55568695,127.1599121
1072,고덕역 5번출구,37.55486298,127.1537247
1073,SSTS 몰 앞,37.54114532,127.1410523
1074,대명초교입구 사거리,37.54683685,127.1491623
1075,천동초교 삼거리,37.54136276,127.1371841
1076,천동초교입구사거리 버스정류장 십자성마을 방면 ,37.5398941,127.141037
1077,강동역 1번출구 앞,37.53620529,127.1325607
1078,둔촌사거리,37.52197647,127.1336212
1079,강일동입구교차로,37.56184387,127.170845
1080,엘웨딩,37.5368309,127.128418
1081,트레빌빌딩,37.53699875,127.1295319
1082,중앙보훈병원역3번출구,37.52956009,127.1490097
1083,광문고교사거리 아이파크 ,37.56036758,127.1565933
1084,윤선생빌딩 JYP사옥 ,37.5239296,127.1291275
1085,래미안 솔베뉴 고덕로 ,37.55456924,127.145874
1086,래미안 솔베뉴 구천면로 ,37.55059814,127.1454544
1088,풍납사거리 강동 ,37.52812195,127.1195221
1089,고덕 래미안힐스테이트 201동 ,37.56060028,127.146698
1090,상일동역 2번출구 앞,37.5567894,127.1661453
1101,개화동상사마을종점 버스정류장,37.58161163,126.7985992
1102,방화사거리 마을버스 버스정류장,37.57364273,126.8118057
1103,방화역 4번출구앞,37.57710648,126.8119965
1105,방화근린공원,37.58162308,126.8126526
1106,신방화사거리,37.57303238,126.816452
1108,공항시장역 2번출구 뒤,37.56387329,126.8106079
1109,공항시장역 4번출구,37.56334686,126.8104858
1110,공항중학교앞,37.56268311,126.8162384
1111,마곡엠밸리6_7단지 마곡중학교,37.56698227,126.8218002
1112,마곡엠밸리4단지 정문,37.56857681,126.8247757
1113,서남환경공원 버스정류장,37.57312393,126.8223877
1117,등촌5단지아파트 버스정류장,37.55819702,126.8442612
1118,증미역 3번출구뒤 등촌두산위브센티움오피스텔 ,37.55746078,126.8614578
1119,염창동 한마음아파트 앞,37.55425262,126.8675613
1120,대림경동아파트앞,37.564785,126.8546448
1121,가양레포츠센터 앞,37.55947876,126.8643799
1122,황금내근린공원,37.56192398,126.8641663
1124,발산역 6번 출구 뒤,37.55817795,126.8384552
1125,명덕고교입구 영종빌딩 ,37.55291367,126.8365707
1126,우장산역 1번출구옆 우장산아이파크105동앞 ,37.54890823,126.8365631
1127,화곡역 버스정류장,37.54098129,126.8385468
1128,화곡역 6번출구,37.54141235,126.8402252
1129,화곡역 1번 출구 앞,37.542099,126.8402176
1130,화곡본동시장 버스정류장,37.54275131,126.8426209
1131,꿈돌이공원 앞,37.54644394,126.845459
1132,등촌역 7번출구,37.55110931,126.8637085
1135,강서구의회,37.54653168,126.8625488
1136,등촌2파출소,37.54478836,126.8619995
1137,등촌2동주민센터,37.54126358,126.8633728
1139,용문사 버스정류장,37.53650665,126.8633347
1140,목동사거리 버스정류장,37.53139877,126.8636093
1141,곰달래 문화복지센터 1-1,37.52906036,126.8484802
1145,곰달래 문화복지센터 1-2,37.52891922,126.8480835
1146,곰달래사거리,37.53033829,126.8382568
1148,볏골공원,37.54146957,126.84478
1149,신방화역환승주차장,37.56728363,126.8182755
1150,송정역 1번출구,37.56153107,126.8106995
1151,마곡역1번출구,37.56020737,126.8241425
1152,마곡역교차로,37.55831146,126.8265228
1153,발산역 1번 9번 인근 대여소,37.55894852,126.8371735
1155,기쁜우리복지관,37.56925964,126.8484192
1157,강서구청,37.55065918,126.8497696
1158,가양역 8번출구,37.56103516,126.8548126
1159,서서울모터리움 앞,37.56585312,126.8465958
1160,양천향교역 7번출구앞,37.56768036,126.8408966
1161,강서면허시험장 앞,37.54969406,126.819664
1162,공항초등학교건너편,37.56267929,126.8204727
1163,방화동강서기동대앞,37.57049942,126.8200836
1165,마곡중학교 후문,37.56844711,126.8216476
1166,강서구립등빛도서관,37.56256866,126.8424606
1167,마곡수명산파크3단지 교차로,37.55350876,126.8258667
1168,마곡엠밸리10단지 앞,37.56029129,126.8187561
1169,염창역 1번 출구,37.54719925,126.8744888
1170,강서구보건소,37.54917908,126.8687973
1171,염창동 새마을금고 건너편,37.55004883,126.8731613
1172,가양3동 주민센터,37.56124878,126.8605804
1173,강서구청사거리 SH타워 ,37.55625916,126.8533173
1174,강서구청사거리 부민병원 ,37.55661392,126.8511658
1175,대한항공 인력개발센터,37.55437851,126.8575363
1177,수명중?고교,37.55010986,126.8236771
1178,개화산역 2번 출구,37.57247162,126.8061676
1180,마곡엠밸리 15단지 1502동  건너편,37.55746841,126.8297195
1181,농수산식품공사  강서지사 ,37.55104446,126.8184967
1182,KBS 스포츠월드,37.55687714,126.8488083
1183,KC 대학교,37.54832077,126.8534012
1184,마곡13단지,37.55644989,126.815979
1185,등촌9단지,37.56290054,126.8494721
1186,송정중학교,37.55472946,126.8160934
1187,강서수산물도매시장,37.55302048,126.818367
1188,롯데중앙연구소,37.57138062,126.8283386
1190,마곡역 교차로 2번출구 ,37.5605011,126.8266525
1191,마곡역 버스정류장 마곡나루역1번출구 웰튼병원 방면 ,37.5602417,126.8271637
1192,마곡수명산파크 209동 건너편,37.55545044,126.8268967
1193,마곡센트럴타워 1차,37.55947113,126.832077
1194,센서텍㈜,37.56330109,126.8368225
1195,코오롱One&Only타워,37.56412888,126.8343124
1196,서울식물원 문화센터  건너편,37.56824112,126.8358307
1197,엠펠리체 호텔 건너편,37.5602417,126.8358078
1198,LG 사이언스파크,37.56254959,126.8274384
1199,우장산역 3번출구,37.54782104,126.8361282
1200,개화광역환승센터,37.57844925,126.7989731
1201,가락시장역 3번 출구,37.49317932,127.1185455
1203,밀리아나2빌딩 앞,37.49372864,127.1206207
1204,거여역 3번출구,37.49334335,127.1447296
1205,종합운동장역 4번출구,37.51042938,127.071373
1206,9호선종합운동장역 9번출구,37.51128006,127.0782394
1207,마천중앙시장,37.49975586,127.152504
1208,풍납현대아파트쉼터,37.52974701,127.1199646
1209,잠실나루역  2번 출구 쪽 ,37.52045059,127.1042023
1210,롯데월드타워 잠실역2번출구 쪽 ,37.51312637,127.1009598
1211,방이삼거리,37.51210403,127.1077805
1212,송파역 2번 출구앞,37.49941254,127.1128693
1213,백토공원 앞,37.50831985,127.1332169
1214,오금역 7번 출구 인근,37.50259399,127.1276474
1215,올림픽공원역 1번출구 앞,37.51657104,127.1315384
1217,송파파인타운 7단지,37.47930527,127.1297989
1218,방이역 4번출구,37.50896835,127.1258392
1220,잠실근린공원,37.50569153,127.0840378
1221,삼전역 4번출구,37.50419998,127.087532
1222,잠실새내역 5번 출구 뒤,37.51198196,127.0850525
1224,아시아지하보도 2번 출구,37.51216888,127.0789337
1226,잠실4동 주민센터 옆,37.52007675,127.1123657
1227,거여역 8번출구 뒤,37.49312592,127.1438217
1228,마천사거리,37.49769974,127.1462021
1229,송파체육문화회관 앞,37.49068832,127.1431274
1230,송파중학교 정문,37.49567032,127.1305924
1231,잠실역 6번출구,37.51408768,127.0990295
1232,잠실주공 521동 건너편,37.51208878,127.0961914
1233,잠실3거리 갤러리아팰리스 ,37.51050949,127.0933685
1235,잠실트리지움310동 옆,37.50887299,127.0871658
1239,문정 법조단지3,37.48084259,127.1180115
1240,문정 법조단지4,37.48057556,127.1185684
1241,문정 법조단지5,37.48123932,127.1197968
1242,문정 법조단지6,37.48163223,127.1191635
1243,문정 법조단지7,37.4845314,127.120163
1244,문정 법조단지8,37.48153687,127.1221237
1245,문정 법조단지9,37.47946548,127.1253281
1246,문정 법조단지10,37.47750854,127.1263275
1247,문정 법조단지11,37.4788208,127.1235123
1248,방이초등학교,37.51396179,127.1216736
1249,아주중학교건너편,37.50546265,127.0773468
1250,문정2동 주민센터,37.48987198,127.1108398
1251,석촌역 2번출구,37.50593185,127.1077499
1253,오금역 3번 출구 뒤,37.50165176,127.1281815
1256,문정현대아파트 교차로,37.49113083,127.1258087
1257,가락시장역 사거리,37.49209976,127.1177521
1258,가락미륭아파트 앞,37.49319839,127.1289978
1259,방이역 1번출구,37.50898361,127.1265945
1260,방이동 한양3차아파트 옆,37.50630188,127.1213989
1262,송파여성문화회관 앞,37.50580215,127.1097183
1263,장지공영차고지,37.48054123,127.1370163
1264,천호역 10번 출구 앞,37.53858185,127.1228027
1265,문정동 근린공원,37.48598862,127.1247635
1266,문정동 글샘 공원,37.47880936,127.1200028
1267,올림픽공원 남2문 앞,37.51424026,127.1230698
1268,몽촌토성역 1번출구 옆,37.51728821,127.1141968
1269,리센츠아파트,37.51194382,127.091217
1271,송파도서관,37.49998474,127.1353912
1274,영파여고 앞,37.53284836,127.121048
1275,거여초등학교 옆,37.50458908,127.1393662
1277,성내6교,37.50375748,127.1370926
1278,송파구청 교차로,37.51579666,127.1068192
1279,마천금호어울림 1차아파트 건너편,37.49751663,127.1546783
1280,송파파크데일 2단지입구 앞 주차장,37.49565887,127.1571732
1282,송파소방서 맞은편 성내4교 ,37.49987411,127.1414795
1283,오금공원 사거리,37.50541306,127.131691
1285,위례별 유치원 뒤,37.4774704,127.1445923
1286,위례중앙푸르지오 1단지 앞,37.47437668,127.1406708
1287,위례아이파크 101동 맞은편,37.47753143,127.1415176
1288,문정중교 사거리,37.48799896,127.1310883
1289,풍납토성 서성벽터B,37.53147125,127.1110916
1290,위례송파꿈에그린아파트24단지 앞 성벽 다리 밑,37.47458267,127.1375427
1291,서울체육고등학교 앞,37.52193832,127.1318665
1293,석촌호수 서호 사거리,37.50656128,127.0965576
1295,잠실역 8번출구,37.51396179,127.1003037
1296,석촌호수교차로  송파나루근린공원 앞 ,37.50867844,127.1034317
1297,석촌호수교차로 동호 팔각정 앞 ,37.50920105,127.1041184
1299,송파소방서  방이119안전센터 ,37.51987839,127.1367111
1300,오륜사거리,37.50693893,127.1392212
1302,한성대입구역6번출구 뒤,37.58876419,127.0063095
1303,돈암초교 입구,37.59169388,127.012497
1304,만해공원,37.59440231,126.9923096
1305,성북구청,37.58932877,127.0164337
1306,한성대입구역2번출구,37.58844757,127.0067062
1308,안암로터리 버스정류장 앞,37.58259201,127.0289764
1314,정릉꿈에그린1단지 201동 앞,37.60243988,127.0116882
1315,고려사대부속중고 정문,37.60776138,127.0032806
1316,고려사대부속중고 건너편,37.60726166,127.0028381
1318,길음역 3번출구 뒤,37.60308456,127.0247879
1319,종암사거리 분수대,37.6030426,127.0332718
1321,국민은행 종암동지점 앞,37.59328842,127.0366669
1322,래미안라센트아파트 103동 앞,37.59806824,127.0392761
1323,월곡역 입구 육교 밑,37.60043335,127.0402069
1325,상월곡역 4번출구,37.60580826,127.0477371
1326,상월곡역 1번출구,37.60606766,127.0473175
1327,상월곡역 3번출구,37.60734177,127.0506821
1328,월곡역 3번출구,37.6026268,127.0416336
1332,석계역 5번출구 건너편,37.61355591,127.0660934
1333,석관초등학교 앞,37.61052322,127.0597992
1334,석관동주민센터 앞,37.61299896,127.0613098
1336,성북3교 위,37.59125137,127.0140076
1337,돈암성당 옆,37.59038162,127.0171356
1338,용문2교 옆,37.5868988,127.020752
1339,삼성전자서비스 성북센터,37.610569,127.0335083
1340,광운초등학교 앞,37.61784363,127.0550003
1342,성북쉼터 앞,37.59261703,126.9979324
1343,한성대7번출구 앞,37.58924866,127.0073776
1344,아리랑시네센터 앞,37.60028839,127.0137024
1346,길음8골어린이공원 옆,37.60897827,127.0202484
1347,길음래미안아파트817동 상가 앞,37.60710526,127.0214996
1348,성북제일새마을금고 본점 앞,37.60475159,127.0227585
1349,월계2교 버스정류장 앞,37.62382889,127.0502014
1351,안암2교 옆,37.5794487,127.0241928
1352,e 편한세상 보문아파트 내,37.58388138,127.0170975
1353,금호어울림센터힐 내,37.60083008,127.0235519
1354,고려대학교 2번출구,37.5907135,127.0361939
1355,보문2교,37.58869934,127.0189133
1357,북한산보국문역,37.61207199,127.0081329
1358,정릉도서관 앞,37.60478973,127.010582
1359,장위뉴타운 꿈에 숲 코오롱 하늘채 앞,37.61980057,127.0450974
1360,정릉역,37.60309601,127.013504
1361,홍익중고 입구,37.59296799,127.0022354
1362,보문역6번출구 앞,37.58519745,127.0196686
1363,보문4교 인근,37.58375168,127.0219498
1364,성북동 치안센터 앞,37.59017181,127.0040894
1365,선잠단지 앞,37.5933609,126.9990921
1366,일신초등학교 옆,37.59972,127.0403824
1367,길음문화복합미디어센터,37.60404587,127.0226593
1368,성신여대입구 교차로,37.59148026,127.0201035
1369,미아사거리,37.60913086,127.0300293
1370,복자사랑 피정의 집,37.59453964,126.9952087
1372,KEB은행 고대점,37.58644485,127.031601
1373,성북구보건소 건너편,37.60229111,127.0389786
1375,생명의 전화 종합복지관 앞 교차로,37.60390854,127.0373764
1376,한국과학기술연구원 중문,37.59732056,127.043808
1377,한국과학기술연구원 북문,37.60395813,127.0453415
1379,길음뉴타운푸르지오아파트 3단지,37.60935974,127.0181732
1380,월곡역 5번출구 앞,37.60108566,127.0412369
1381,석계역 4번출구 뒤,37.61478424,127.0670013
1382,래미안월곡아파트 입구,37.60853577,127.0363922
1384,성신여대입구역 5번출구,37.59282684,127.0162888
1385,성신여대입구역 3번출구 앞,37.59236526,127.0162888
1386,동선고가차도 초입,37.59415817,127.0189667
1388,돈암초교입구 버스정류장 한성대입구역 방면 ,37.59088135,127.0117035
1390,석관래미안아트리치,37.60646057,127.0616226
1391,성북청소년센터,37.61701202,127.0561676
1392,돈암삼성풍림아파트,37.5970993,127.0226288
1393,돈암육교 하단,37.59802628,127.0214081
1394,길음뉴타운 래미안9단지,37.60241699,127.0197144
1395,레미안장위포레카운티 102동 ,37.61817932,127.0518341
1396,레미안장위퍼스트하이 513동 ,37.61844254,127.0514526
1401,극동늘푸른아파트,37.61473846,127.0763626
1402,금란주차장 앞,37.60007095,127.1023331
1403,중화빌딩 앞  동부시장 ,37.59424973,127.0765762
1404,동일로 지하차도,37.59529877,127.0800324
1405,망우역 1번출구,37.59909821,127.0929489
1406,망우청소년수련관,37.60625076,127.1082687
1407,먹골역 1번출구 뒤,37.61151123,127.0778885
1408,먹골역 6번출구 앞,37.61072159,127.0774765
1410,면목 대원칸타빌아파트,37.57778168,127.0901871
1411,상봉시장앞 교차로 한성빌딩 앞,37.59254074,127.0867386
1412,면목초등학교,37.59096146,127.0870667
1413,봉화산역 5번출구 뒤,37.61756134,127.0903091
1414,사가정역 1번출구,37.58098984,127.0882416
1416,상봉역 3번출구,37.59521866,127.0859985
1418,새솔초등학교,37.61743927,127.1090164
1420,신내어울공원 앞,37.61394501,127.097702
1421,신내역 4번출구,37.61246109,127.1033783
1422,신내우디안아파트 1단지,37.62009811,127.1064606
1424,양원역 2번출구,37.6063118,127.1077423
1425,용마문화복지센터,37.58745956,127.0959702
1426,면목도시개발아파트 1동 앞,37.57358932,127.0868225
1427,용마산역 1번출구,37.57429886,127.0869141
1428,원묵고등학교,37.61602402,127.085968
1429,장안중학교,37.59995651,127.0800018
1430,중랑구청,37.60615158,127.092598
1431,중랑구청 사거리,37.60649872,127.0954514
1433,중화역 2번출구,37.60207748,127.0795822
1435,능산삼거리,37.60868073,127.1007919
1436,영풍마드레빌,37.60810089,127.101181
1437,늘푸른공원 앞,37.5834198,127.0799255
1438,홈플러스 신내점 앞,37.61616898,127.093483
1440,면목2동 사거리,37.58637238,127.0800705
1441,신내능말공원,37.61671066,127.110733
1442,중랑구 중소기업 창업센터,37.59859085,127.0798187
1444,면목4치안센터,37.57402802,127.0805435
1445,용마지구대,37.5799408,127.0793991
1446,중랑전화국 교차로,37.59130096,127.0803299
1447,면목역 3번출구,37.58890152,127.0872803
1448,코스트코 상봉점,37.59732056,127.089798
1449,상봉역 1번출구,37.59655762,127.0858383
1450,화랑대역 7번출구,37.61963654,127.0850449
1451,중랑세무서,37.59275818,127.07267
1452,겸재교 진입부,37.58565521,127.0750504
1453,중랑캠핑숲,37.60460281,127.1092529
1454,한국전력공사 동대문 중랑지사 ,37.6073494,127.0785904
1455,상봉역 2번 출구,37.59632874,127.0858994
1456,상아빌딩 우림시장 교차로 ,37.59511185,127.1003265
1457,동원사거리,37.58975983,127.0932388
1458,상봉터미널2,37.59733963,127.0930862
1459,용마한신아파트사거리,37.58034897,127.0926514
1461,동양엔파트 앞,37.593853,127.0750732
1462,동부시장 북문 앞,37.59386826,127.0765228
1463,중랑구민회관,37.57407761,127.0850067
1464,중화역 4번출구,37.60305405,127.0790024
1465,중랑공영차고지 옆,37.61314774,127.1051483
1466,두산대림아파트 삼거리,37.61882401,127.0875702
1467,sk신내 주유소앞 용마산로 ,37.61362076,127.1011505
1468,먹골역 7번 출구,37.6114769,127.0773926
1469,먹골역 4번출구,37.60982132,127.0781326
1470,중화동 우리은행 앞,37.60520172,127.0785828
1471,동양쇼핑 정류소 앞,37.61535263,127.0784912
1472,영성빌딩 PAT ,37.60408401,127.0792313
1473,중랑역 1번 출구 중화문화복지센터 ,37.59489059,127.0749512
1474,서울중랑우체국,37.59581375,127.08284
1477,면목삼익아파트 앞,37.57598495,127.0796051
1478,홈플러스 상봉점 앞,37.59832764,127.0922699
1479,면목 홈플러스 2 ,37.58105469,127.0820923
1480, 용마지구대 옆,37.58111191,127.080101
1501,미아역 3번4번 출구 사이,37.62607956,127.0264816
1503,이디야 커피 수유역점 앞,37.63926315,127.0267258
1504,다이소 삼양시장점,37.62415695,127.0186234
1506,강북문화예술회관,37.64032745,127.0133591
1509,서울북부수도사업소,37.63437653,127.0357513
1510,번동주공5단지 관리사무소 앞,37.63371658,127.0355148
1511,번동 금호어울림아파트102동앞,37.63112259,127.0360336
1512,강북중학교 앞,37.64473724,127.0265656
1513,강북구청 뒷편,37.63967133,127.0251999
1514,강북구청 사거리 버스정류소 앞,37.63880539,127.0283585
1515,송천동 주민센터,37.61828613,127.0240479
1516,우이초등학교 후문 옆,37.63858795,127.0159073
1518,SK telecom 수유직영점  앞,37.64308548,127.0161667
1519,세븐일레븐 수유장미원점 앞,37.64545059,127.0156174
1520,성실교회,37.63986206,127.022789
1522,월드전기조명인테리어 우이동 ,37.65447235,127.0127564
1525,미아동 복합청사,37.62714005,127.0266953
1526,수유동 채선당앞,37.64173889,127.0246277
1527,미아역 1번 출구 뒤,37.62733459,127.0260544
1528,삼각산동 주민센터,37.61503601,127.0206986
1529,미아동 한국전력공사,37.63018036,127.02491
1530,광산사거리,37.64355087,127.0223465
1531,미아사거리 1번 출구,37.61395645,127.0302506
1532,번3동 주민센터 교차로,37.62635422,127.0474472
1533,번동 주공3 4단지 교차로,37.62991714,127.0409164
1535,효성인텔리안 앞,37.6362915,127.0233765
1536,번동 두산위브 101동 옆,37.63626099,127.0321732
1537,북한산 우이역,37.66366577,127.0124283
1538,솔밭공원역,37.65615845,127.0131378
1539,4.19민주묘지역,37.64967346,127.0134506
1540,가오리역,37.64167023,127.0168839
1541,삼양역,37.62652969,127.0180588
1542,삼양사거리역,37.62155151,127.0203705
1543,수유1동 주민센터,37.63018799,127.0177383
1546,송천동우체국,37.61545944,127.0297012
1547,꿈의숲 롯데캐슬,37.6186409,127.0362396
1548,북서울 꿈의숲 서문,37.62268829,127.0378113
1550,삼각산아이원아파트 105동 옆 ,37.61522293,127.0185089
1551,4.19탑 앞,37.64686203,127.008812
1552,강북구청사거리 던킨도너츠 앞 ,37.63920212,127.0272369
1553,예수그리스도후기성도교회 앞,37.63520432,127.0339661
1554,번동사거리,37.63539124,127.0345535
1557,신창교,37.63238144,127.0393066
1558,강북문화정보도서관,37.62552643,127.037323
1560,도봉세무서 앞,37.6198082,127.0285263
1564,4.19민주묘지역 1번출구,37.64959717,127.0138474
1565,대한병원앞,37.63561249,127.022995
1568,4.19민주묘지 입구사거리,37.64793396,127.0145721
1569,수유역2번출구,37.63796997,127.0259018
1571,북서울 꿈의숲 입구,37.62673187,127.0387726
1572,우이산 입구,37.66446304,127.0118408
1573,현대성우아파트 옆,37.61666489,127.02211
1574,송중초등학교 옆,37.61669922,127.0304947
1601,석계역 문화광장 내 자전거 보관소,37.61495972,127.0646973
1602,광운대역 앞,37.62266159,127.0618973
1605,헬스케어,37.63162231,127.061615
1606,태릉입구역 3번출구,37.61917114,127.0749283
1608,공릉역 1번 출구 앞,37.62661362,127.0727539
1610,화랑대역 2번출구 앞,37.62036896,127.0836411
1611,과기대 입구 우 ,37.62994003,127.0765533
1616,하계2동 공항버스정류장 옆,37.63510895,127.0683289
1617,하계동 중평어린이공원 앞,37.63714981,127.0632706
1619,중계동 하나프라자빌딩 앞 중1-1 ,37.64902115,127.0764084
1620,중계동 노원구민체육센터 옆 중1-2 ,37.64820862,127.070221
1625,상계역 4번출구 ,37.65999985,127.0729675
1627,수락산역 4번출구,37.67694092,127.0550995
1628,노일초등학교 앞,37.67361832,127.0552521
1630,수연빌딩 앞,37.67625046,127.0555039
1634,당고개공원 대여소,37.66846085,127.0771484
1635,상계3.4동 주민센터 대여소,37.67271042,127.0831604
1636,상계주공2단지 버스정류장 옆,37.64921188,127.0617676
1637,KT 전화국 버스정류장 옆,37.65470123,127.0634003
1639,희성오피앙,37.68031311,127.055069
1640,한내근린공원 북측,37.62386322,127.0684891
1641,한내근린공원 남측,37.62155533,127.0695114
1642,서울여대 남문,37.62531662,127.0881348
1643,태릉입구역 8번출구,37.61736679,127.0752106
1646,삼육대 입구,37.63848877,127.1079025
1650,중계근린공원내,37.63957977,127.0651016
1651,상계동 우방유쉘아파트 앞,37.67237473,127.0559921
1652,파르코 앞,37.68000031,127.0555801
1653,노원역1번출구,37.65620041,127.0636215
1654,당고개입구 오거리,37.66379166,127.0754471
1655,공릉1단지아파트,37.63111115,127.0701599
1656,중앙하이츠 아파트 입구,37.65501785,127.0675049
1657,노원구청,37.65404892,127.0573273
1659,중계동 을지중학교,37.65032959,127.0716019
1660,서울시립과학관,37.64207077,127.076622
1661,당현천근린공원,37.64963913,127.0656052
1662,노원역7번출구,37.65421677,127.0592117
1663,동해문화예술관앞,37.61938095,127.0578537
1664,노해근린공원내,37.64936066,127.0704422
1665,양지근린공원앞,37.64733505,127.0764237
1666,노원소방서인근,37.65578079,127.0717773
1667,중계중학교,37.65449905,127.0743866
1668,중계역 6번출구,37.64550781,127.0632553
1669,중계역 3번출구,37.64352798,127.0652237
1670,노원경찰서교차로,37.64340973,127.0718384
1671,인덕대학교,37.62934875,127.0548248
1672,상계동수락리버시티,37.68859863,127.0534058
1673,노원역 5번출구,37.65397644,127.0609741
1674,서울북부고용센터앞,37.65354919,127.0580826
1675,월계문화체육센터,37.62694168,127.05513
1677,육군사관학교 앞,37.62316513,127.0904999
1678,성서대학교 밀알관,37.6484375,127.0644455
1679,삼육대 도서관,37.6428299,127.1066666
1680,삼육대 제3과학관,37.64265442,127.1083832
1681,현대6차 아파트,37.64580154,127.0822601
1682,중계종합사회복지관 교차로,37.65745544,127.0755463
1683,노원문화예술회관,37.65045929,127.0808868
1684,태릉입구역 5번출구,37.61832047,127.0756302
1685,불암고등학교 앞 횡단보도,37.64818954,127.0804825
1686,상계주공10단지 종합상가 앞,37.66114044,127.0580521
1688,마들역 7번출구,37.66566086,127.0572968
1689,마들역 3번출구,37.66524887,127.0578919
1690,도봉운전면허시험장 버스정류장 옆,37.6577301,127.0593109
1691,노원정보도서관,37.66070938,127.0653305
1692,온곡초교 교차로,37.66418839,127.0660095
1693,원자력 병원,37.62818909,127.0821075
1696,수락리버시티4단지,37.68645096,127.0528336
1697,상계주공2단지 219동,37.65024948,127.0571518
1702,녹천역 1번출구 앞,37.64582062,127.0504227
1703,도봉산광역환승센터앞,37.68972015,127.0451965
1705,도봉구청 정문앞,37.66922379,127.0465164
1706,기업은행 앞,37.66566467,127.0426712
1707,도봉구민회관,37.65446091,127.0385132
1708,보건소사거리 다비치안경창동점 ,37.65682983,127.0398483
1709,쌍문역4번출구 주변,37.65012741,127.035347
1713,쌍문동 이안아파트 앞,37.65165329,127.0284882
1714,도봉문화정보도서관 삼거리,37.64463043,127.0446091
1715,서울특별시교육청도봉도서관,37.65317917,127.0127869
1716,하나로마트 창동점,37.65420151,127.0507278
1717,시립창동운동장 입구,37.65570831,127.0501022
1719,신도봉사거리 버스정류장,37.67328262,127.0439911
1720,도봉구청 옆 중랑천변 ,37.66867065,127.0479813
1721,창동역 2번출구,37.65301514,127.0469971
1722,창동청소년수련관,37.65779877,127.0500488
1723,방학동학마을도서관,37.66207886,127.0277176
1725,창1동주민센터,37.6475029,127.0433121
1726,삼익세라믹아파트교차로,37.65858841,127.0352097
1727,서울도봉초등학교인근,37.67867661,127.0407639
1728,서울북부지방법원,37.67771912,127.046814
1729,파리바게트앞,37.68400955,127.0457916
1730,도봉산역 교차로 앞,37.68759155,127.0455017
1731,도봉고등학교 맞은편,37.6876297,127.0422134
1732,우리은행 앞,37.66759872,127.0429993
1733,방학사거리  봄마당 앞 ,37.66297913,127.0419388
1734,쌍문현대1차아파트 108동 앞,37.65814972,127.0326691
1735,도봉역 12번 출구사이 건너편,37.67911911,127.0449829
1736,버스정류장 앞,37.65224075,127.0370636
1737,하나은행  창동점 ,37.63970184,127.0388336
1738,창동주공17단지 상가앞,37.6463089,127.052742
1741,제일강산수산입구,37.64519882,127.0329819
1742,북한산 코오롱 하늘채,37.64889145,127.0230179
1743,창동19단지아파트 관리사무소앞,37.65039062,127.0521927
1744,KT방학지사 앞,37.66527176,127.0431442
1746, 다이소방학점 앞,37.66623306,127.0433197
1748, 피자헛 앞 도봉병원 옆 ,37.66898346,127.0437622
1749, ESA아파트 상가 앞,37.66627121,127.04599
1750, 창포원 남쪽 입구,37.68826675,127.0488968
1751, 창원초등학교 교차로,37.6521225,127.0417023
1752, 창동 주공 4단지 입구 옆,37.64548111,127.0485764
1754, 창동시장입구 사거리,37.64689636,127.033432
1756,서울북부광역등기국,37.6514473,127.0447083
1757,솔밭공원역 1번출구 앞,37.65568542,127.013382
1758,북서울교회 버스정류소 앞,37.65727997,127.0137558
1759,서울북부지방법원 앞,37.67721939,127.0486374
1761,방학중학교 앞,37.66562271,127.0310898
1762,북한산 한신휴플러스APT앞,37.65533829,127.0424194
1765,쌍문역 1번 출구 양산부인과 빌딩 ,37.64966965,127.035614
1767,태양중앙교회 앞,37.66250992,127.0332794
1768,신동아타워 버스정류소,37.66205215,127.0287552
1770,도봉한신아파트 주변,37.68523407,127.0498581
1771,성원APT버스정류소,37.65796661,127.0300903
1772,시립도봉노인복지관 버스정류소,37.65805054,127.035759
1774,반석교회 쌍문동 ,37.65134811,127.034729
1775,신원리베르텔 앞,37.65128708,127.0455475
1804,독산역 2번출구 자전거주차장,37.46652985,126.8887177
1805,서울디지털운동장 앞,37.48228836,126.8777695
1806,에이스하이엔드타워9차 앞,37.48621368,126.8786392
1808,에이스하이엔드타워8차 앞,37.47320938,126.8849411
1809,LG전자 별관동 호서대 벤처타워 맞은편 ,37.47077942,126.8851547
1812,갑을그레이트밸리 앞,37.47903061,126.8872986
1814,두산위브아파트 옆 상가건물 앞,37.47422028,126.8941269
1816,금천폭포공원 앞,37.44686127,126.9038315
1819,금천구청 앞 자전거거치대,37.45647812,126.8959274
1820,신한은행 시흥대로금융센터지점,37.4433403,126.9033585
1821,홈플러스 시흥점 맞은편 다비치안경 앞,37.45145798,126.9021149
1822,서울 시흥동우체국 앞,37.45299149,126.9009094
1823,상신정비공업 앞,37.4589119,126.8985901
1824,독산근린공원 입구,37.46455002,126.883728
1825,한신아파트 앞 육교 아래,37.45470047,126.8910523
1826,한신코아 앞,37.45684052,126.8883438
1827,독산보도육교 앞 자전거 보관소,37.45672607,126.8930664
1828,한양수자인아파트 앞,37.47531891,126.8988876
1829,홈플러스 금천점 앞,37.4691391,126.8972015
1830,빅마켓 금천점 앞,37.4702301,126.8950729
1831,메이퀸웨딩컨벤션 앞,37.47249985,126.8979569
1833,독산역 1번출구 앞 자전거보관소,37.46654129,126.8902817
1834,월드메르디앙 벤처센터 2차,37.47908401,126.8790436
1835,STX V타워,37.47706985,126.8844299
1836,금천구립 독산도서관,37.46740341,126.9081421
1839,수출의 다리 아래,37.47743607,126.8861542
1840,솔브레인이엔지 뒤편,37.47555161,126.8884583
1841,가산동 주민센터,37.4769516,126.8918686
1842,한울중학교,37.46257401,126.9068604
1843,독산고등학교,37.47709656,126.9111328
1845,롯데캐슬골드파크1차 서문,37.460289,126.892189
1846,롯데캐슬골드파크1차 동문,37.46017075,126.8960419
1847,독산주공 14단지 버스정류소,37.46093369,126.8871689
1848,벽산 디지털밸리 5차,37.4762764,126.8853912
1849,대륭포스트타워5차,37.48135376,126.88694
1850,코오롱테크노밸리,37.48015976,126.8863678
1851,가산디지털단지 7번출구,37.48123169,126.881485
1852,혜명양로원 담장 옆,37.45177078,126.9133987
1853,서울디자인직업전문학교 앞,37.47248077,126.8958664
1854,가산아네스트 오피스텔 앞,37.47817993,126.8974075
1855,성지아파트 옆 도로변,37.45132065,126.8976212
1856,모두의학교,37.47840881,126.9073715
1857,주공14단지,37.46055984,126.8870926
1858,500번·507번 버스 종점 앞,37.43727112,126.9026871
1859,대륭테크노타운 18차,37.4679985,126.8868408
1861,IBK기업은행 석수역 지점 앞,37.4369812,126.9032974
1862,스타즈호텔독산 빌딩 앞,37.46134567,126.897583
1863,위너스 스포츠클럽 골프연습장옆,37.46053696,126.8986054
1864,산호시티빌 옆,37.45652008,126.8995514
1865,금천구청앞 M빌딩 ,37.45633316,126.8964539
1866,서울안천초등학교 옆,37.45777893,126.8894272
1867,대륭포스트타워6차 앞,37.48088837,126.8838043
1868,우리은행 시흥남자동화점 앞,37.44785309,126.9028854
1869,롯데캐슬골드파크3차 301동 앞,37.45901871,126.8967133
1870,독산3동주민센터 앞,37.47507095,126.9033585
1901,신도림동주민센터 앞,37.50733185,126.8797302
1904,도림천역 1번 출구 앞,37.51424026,126.8828735
1906,신도림역 1번 출구 앞,37.50971985,126.8900986
1907,구일우성 아  육교 밑,37.48963165,126.8762589
1908,해원리바파크 육교 밑,37.49528503,126.8721619
1910,낙원교회 맞은편,37.49750519,126.8843765
1911,구로디지털단지역 앞,37.48493958,126.9013214
1912,한신휴아파트 앞,37.48880005,126.8906632
1913,구로리공원,37.49103165,126.8921509
1914,대림역4번출구,37.49440384,126.8944473
1916,구로중학교앞,37.49414062,126.8899841
1920,서울미래초등학교 사거리,37.50437927,126.888298
1924,삼부르네상스파크빌,37.47874069,126.8950958
1925,동양미래대학교 정문 옆,37.49988937,126.8676987
1928,고척스카이돔구장 광장,37.49946976,126.8684006
1929,고척근린공원 고척도서관 앞,37.5038147,126.8519592
1930,개봉지구대 개봉치안센터,37.49768448,126.8537293
1931,개봉역2번출구A,37.49499512,126.8582535
1933,개봉푸르지오아파트 상가,37.50170517,126.8472824
1936,개봉역 1번 출구 자전거보관서쪽,37.49428177,126.8592148
1937,한진아파트 입구,37.4860611,126.8520126
1941,오류동역 2번출구,37.49367142,126.8437042
1943,온수역 북측,37.49279022,126.8245239
1946,구로역 광장,37.50311661,126.8803864
1951,천왕이펜하우스 4단지 상가 앞,37.48070526,126.8389587
1952,천왕연지타운2단지 앞,37.48210526,126.845726
1953,천왕역 4번출구 뒤,37.48638535,126.8392105
1955,디지털입구 교차로,37.48288345,126.9010391
1956,동아1차APT105동 버스정류장 신도림중학교 방면 ,37.51000977,126.8820496
1957,구로거리공원 동측 신도림역 방면 ,37.49340057,126.8743286
1958,500번·507번 버스 종점 앞,37.49578094,126.8901215
1959,구로구의회 앞,37.49645615,126.8895874
1960,화광신문사 앞,37.50284958,126.8894806
1961,신도림테크노근린공원,37.50819397,126.891304
1962,가리봉동주민센터,37.48160172,126.8927994
1964,원메디타운 앞,37.49789047,126.864502
1965,삼환로즈빌아파트 105동 옆,37.49724197,126.8591232
1966,한마을아파트 정문상가,37.49649811,126.8630981
1967,참새공원 백곡경노당 ,37.5051384,126.8443375
1968,동인오피스텔 건너편 소공원,37.49848175,126.8475037
1969,궁동생태공원,37.50190353,126.8289642
1971,오정초교 앞 보도육교,37.49072266,126.8263931
1973,오리로와 서해안도로 교차로 앞,37.48859787,126.8364945
1974,신도림2차e편한세상아파트 203동 앞,37.50518036,126.8825378
1975,대림역 1번 출입구 밑,37.49256516,126.8947525
1976,남구로역 5번 출입구 앞,37.48567963,126.8867035
1977,천왕역 1번 출입구 앞,37.48620987,126.8388214
1979,구로1동우체국 앞,37.4920311,126.8737717
1981,천왕이펜하우스5단지 앞,37.47943115,126.8426971
1983,구로동롯데아파트,37.50254822,126.8838806
1984,구로구청,37.49526596,126.8884735
1985,구로도서관,37.49851608,126.8919907
1986,태평양물산빌딩,37.48485947,126.8951874
1987,개봉아이파크아파트 앞,37.49034119,126.8609314
1988,고척LIGA아파트 앞,37.50605011,126.8607864
1991,오류동역 맞은편,37.49676132,126.8449631
1992,구로구배드민턴실내체육관 앞,37.4917984,126.8324204
1993,금강수목원아파트 앞,37.48937988,126.834198
1994,삼성전자 물류센터 앞,37.49699783,126.8717804
1996,구일역 1번 출입구 앞,37.49539948,126.8710098
1998,고척교 교차로,37.49856949,126.871521
1999,수궁동 성당 주변,37.49525833,126.830658
2000,신도림4차 e편한세상 아파트 1109동 앞,37.5123291,126.8868332
2002,노들역 1번출구,37.51284409,126.9524689
2003,사육신공원앞,37.51335907,126.9480591
2007,유한양행앞,37.51293945,126.9342423
2008,노량진근린공원 대방공원,37.5093689,126.9280701
2009,보라매역 8번출구,37.50007629,126.9210815
2012,대림사거리 동작상떼빌아파트 ,37.48836136,126.9062271
2013,장승배기역 5번출구,37.50585175,126.9393616
2015,신대방삼거리역 6번출구쪽,37.49985504,126.9295654
2016,신대방삼거리역 3번출구쪽,37.49964523,126.9270935
2020,장승배기역2번출구뒷편쪽,37.50449753,126.9389877
2024,상도역 1번출구,37.50217819,126.948204
2025,흑석역 1번출구,37.50938034,126.9636154
2026,흑석역 4번출구,37.50858688,126.9634934
2027,중앙대학교 정문 1,37.50704193,126.9591522
2032,이수역 11번출구쪽,37.48550797,126.9816208
2033,사당동 아르테스 웨딩앞,37.48149109,126.9815826
2034,사당역 7번출구쪽,37.47689056,126.9805756
2036,정금마을 마을버스정류장,37.4947052,126.9823914
2037,동작역 5번출구 동작주차공원,37.50318909,126.97715
2038,동작역 7번출구,37.50318146,126.9760895
2040,비계 버스정류소,37.5063591,126.9690781
2041,사당중학교 버스정류소,37.48683548,126.9680481
2048,삼일초등학교 인근,37.48907852,126.9735642
2050,노량진역 5번출구,37.51324844,126.9399719
2054,삼익아파트,37.51054764,126.9448471
2056,동작구민 체육센터,37.49449921,126.9165268
2057,상도 아이파크 아파트,37.5008812,126.9417496
2058,동작경찰서,37.5135231,126.9435272
2059,보라매공원 정문,37.49707794,126.9177933
2060,남성역3번출구 뒤,37.48463058,126.97155
2061,한강 현대아파트 건너편,37.50592804,126.9692307
2062,사당새마을금고,37.48665237,126.9678421
2064,흑석한강푸르지오 106동앞,37.50535583,126.9661789
2065,서울시여성가족재단,37.51198959,126.9270859
2066,양문교회 앞,37.48939896,126.9071121
2067,보라매역?동작세무서 버스정류장 강남중학교방면 ,37.49766922,126.9198685
2068,총신대 앞 육교 ,37.48815918,126.9664764
2069,숭실대 입구역3번 출구 앞,37.4966011,126.953682
2070,노량진역 2번 출구 앞,37.51391983,126.9430695
2071,대림아파트 후문 상가 옆,37.48886871,126.9719086
2076,노들나루공원 입구,37.51357651,126.9555512
2077,노들역 3번출구,37.51193619,126.9541626
2078,흑석 아크로리버하임 103동 ,37.51083755,126.9616318
2079,중앙대학교 정문,37.50667191,126.9577789
2080,대방지하보도 대방동경남아너스빌아파트 ,37.51213455,126.9254379
2082,7호선 이수역7번출구,37.4846077,126.9817963
2083,흑석롯데캐슬에듀포레 107동 ,37.50470352,126.9607315
2084,e편한세상 상도노빌리티 앞,37.50456238,126.946785
2085,강남중학교 앞,37.50274277,126.9215775
2086,삼일수영장 앞,37.48712158,126.9743576
2088,상도중앙하이츠빌 입구,37.50024796,126.9497299
2089,사당역10번출구 금강빌딩 ,37.4791069,126.9815064
2090,기아자동차 사당점 앞,37.48377991,126.9779205
2091,이수역9번출구,37.48470306,126.9805908
2092,흑석한강푸르지오 110동 ,37.50311279,126.9647141
2093,상도SH빌아파트 입구,37.50321198,126.9545975
2094,숭실대학교 중문  ,37.49550629,126.9563751
2095,경문고등학교 앞,37.49150085,126.9824066
2096,서울특별시 동작관악교육지원청,37.50251389,126.9406509
2102,봉림교 교통섬,37.48408508,126.9268875
2103,신림동 우방아파트,37.4891777,126.9192734
2104,사당역 5번출구,37.47608948,126.9813309
2105,미성동 신림체육센터,37.48025131,126.9146042
2106,세이브마트,37.47372818,126.9184036
2107,도림천 신화교,37.4754715,126.9364548
2108,은천치안센터,37.48334122,126.9431992
2109,은천로입구 가로공원,37.48622513,126.9358292
2110,조원동 미성아파트,37.48319244,126.9020309
2111,서울대입구역 1번출구,37.48086929,126.9533157
2112,서울대입구역 마에스트로,37.4813385,126.9506455
2113,관악동작견인차량보관소,37.4846611,126.9039002
2115,관악구시설관리공단,37.47991562,126.9028397
2116,에이스에이존빌딩,37.48170471,126.9508286
2119,중앙동 동진빌딩,37.48425674,126.9546967
2122,낙성대로 입구,37.47805786,126.960495
2127,난곡종점,37.46488571,126.9194794
2128,관악구청교차로,37.47916412,126.9525833
2129,낙성대 과학전시관,37.46905518,126.9581451
2130,영어마을 관악캠프,37.47198868,126.9584274
2135,신림역 5번출구,37.48440933,126.9289093
2136,신림역 8번출구,37.48450851,126.930069
2137,KT&G 관악지점,37.48490143,126.9365311
2139,서울신성초등학교,37.4711647,126.9370194
2140,신림1교 교차로,37.47842789,126.9318619
2141,미림여고입구 교차로,37.47229385,126.9334106
2143,서울산업정보학교,37.4706955,126.9421997
2144,난우길입구,37.47777557,126.9167557
2145,은천초등학교 육교,37.48635864,126.9429245
2148,낙성대역 3번출구 뒤,37.47702789,126.9633942
2156,신림푸르지오아파트,37.48072052,126.9093247
2159,인헌초교,37.47509003,126.9592285
2164,관악우체국,37.48476791,126.9328766
2165,JK장평타워,37.47648239,126.9653626
2167,낙성대역 1번출구,37.47629547,126.9649582
2169,봉천역 2번출구,37.48218918,126.942131
2170,조원동서울본병원,37.48152924,126.9120331
2171,서울대입구역 5번출구,37.48154831,126.9520035
2172,나들목공원,37.46940613,126.9445114
2173,당곡사거리,37.48974991,126.9274674
2174,삼성디지털프라자관악점,37.48856354,126.9284821
2175,신림동걷고싶은문화의거리입구,37.48730087,126.9287033
2176,보라매공원 보도육교,37.48899078,126.9163818
2177,신대방역 2번 출구,37.48712921,126.9130173
2178,서울대학교 정문,37.46709442,126.9493256
2179,양녕로 입구,37.48218918,126.9461594
2183,동방1교,37.47182846,126.9339218
2184,구암초등학교 버스정류장,37.48949051,126.9459229
2185,대학동 고시촌,37.47046661,126.938652
2186,낙성대입구삼거리,37.4788208,126.95961
2187,현대시장사거리,37.4867363,126.9475174
2189,봉천역 4번출구,37.48275375,126.9414063
2190,도원맨션,37.48368835,126.9391556
2191,대학동주민센터 ,37.47068787,126.9364853
2195,은천교회,37.48464584,126.9345093
2196,봉천역 3번출구,37.4833107,126.9390259
2198,사랑의병원,37.47946548,126.9569321
2199,신봉천주유소,37.47877121,126.9586945
2201,본마을 정류소 앞,37.4532814,127.0514832
2202,청계산입구역 1번출구,37.44893646,127.0543747
2203,청계산입구역 2번출구,37.44765854,127.0550156
2205,내곡3단지 어린이공원 앞,37.45375061,127.0593796
2206,언남초등학교 앞,37.45435715,127.0621033
2207,내곡파출소 뒤 정자,37.45440674,127.0649262
2210,반포1동 주민센터 앞,37.50509644,127.0131073
2211,서초구립반포도서관 앞,37.50263596,127.0123138
2212,서초현대4차아파트 201동 맞은편,37.50065231,127.0186157
2213,고속터미널역 5번출구 앞,37.5022316,127.0022583
2214,신반포역 2번출구 앞,37.50411606,126.9974899
2215,반포종합운동장 입구,37.5017128,126.9954758
2217,아크로리버뷰 부지 앞,37.51304626,127.0059586
2219,고속터미널역 8-1번 8-2번 출구 사이,37.50619888,127.0039444
2220,반포본동 주민센터 앞,37.50061417,126.9861603
2221,방일초교 마을버스 정류장,37.48561096,126.9946823
2222,사당역 12번출구 뒤,37.47806931,126.9820328
2223,방배래미안 정문 앞,37.47261047,126.9830093
2225,백석예술대학교 제3캠퍼스 앞,37.4737587,126.9952469
2226,신동아럭스빌아파트 앞,37.47518158,127.0013886
2227,방배열린문화센터 앞,37.48905182,126.9925232
2228,뒷벌공원 옆,37.48976898,126.986763
2229,로고스교회 맞은 편,37.48701096,126.9849625
2230,이수역 4번 출구,37.4858284,126.9826279
2231,삼성타운 삼성생명  A동 맞은편,37.49691391,127.0249634
2233,서초신동아1차아파트 옆,37.49111176,127.0229569
2235,KT 서초지사 앞,37.48215866,127.0027008
2237,서울남부터미널 대합실 입구,37.48455811,127.0148697
2239,교대역 6번출구,37.49421692,127.0137863
2241,양재전화국 사거리,37.48537827,127.0417023
2242,양재역 11번 출구 앞,37.48398972,127.0341797
2243,서울가정법원,37.48149109,127.0367279
2244,교육개발원입구 교차로,37.47785187,127.0389099
2245,양재초등학교 맞은편,37.47361374,127.03051
2246,서울시 품질시험소 앞,37.46920013,127.029007
2247,섬들근린공원,37.46263885,127.026619
2248,서초리슈빌S 글로벌 앞,37.45995331,127.0247421
2249,우솔초등학교 맞은편,37.45623398,127.0193481
2250,서초유치원 맞은편,37.4557991,127.0162888
2251,더케이호텔 입구 양재2 ,37.46750641,127.0344772
2252,잔디마을 마을버스 정류장,37.46332169,127.0360413
2255,시민의숲역 1번출구 옆,37.47016525,127.03862
2256,양재동 꽃시장 입구,37.46768951,127.0403595
2257,청계산 입구 삼거리,37.46268845,127.0461121
2258,구룡사 삼거리,37.47153854,127.0505905
2259,잠원역 3번-4번 출구사이,37.51298904,127.0111771
2262,한신16차아파트 119동 앞,37.5161972,127.0092087
2263,바우뫼문화복지회관,37.47192764,127.0268402
2264,이수역 1번출구,37.48897171,126.9827194
2265,이수고가차도 남단,37.49474335,126.9830627
2266,서초역 3번출구,37.49053955,127.0081635
2268,서초4동주민센터,37.50231934,127.0222702
2269,주홍교 하부,37.51034927,127.0160523
2270,서초포레스타 7단지,37.44896698,127.0577393
2271,내방역 8번출구 앞,37.48802185,126.9941177
2272,교대입구 교차로,37.4873085,127.010582
2273,일동제약 사거리,37.47782898,127.038269
2274,양재시민의숲역 3번출구,37.46965027,127.0396118
2275,염곡치안센터 건너편,37.46157837,127.0487976
2276,영동1교  양재천근린공원 ,37.47438812,127.0389023
2277,길마중4교 하부,37.51483917,127.0156021
2279,교대역 5번출구뒤,37.49361801,127.014183
2280,서울서초고용센터앞,37.48416138,127.0109711
2281,연세사랑병원신관앞,37.47597885,126.9862824
2282,방배래미안아트힐 101동앞,37.47720337,127.0058365
2283,그룹한빌딩옆,37.48652649,126.9891663
2284,CJ오쇼핑앞,37.4681015,126.9868012
2285,LH서초3단지 301동 맞은편,37.45742416,127.0226517
2286,탑성마을입구,37.4585495,127.0558853
2287,능안마을입구,37.45561981,127.0671005
2288,안골마을입구,37.45560837,127.0644531
2289,남태령역 2번출구,37.46429825,126.9885254
2293,SPC 앞,37.48479843,127.0369949
2294,두상빌딩 앞,37.47590637,127.0462418
2297,남부터미널역 1번출구,37.485672,127.0159226
2298,래미안서초스위트앞,37.50241089,127.0216065
2299,한전아트센터 앞,37.48646927,127.0280609
2301,현대고등학교 건너편,37.52407074,127.0217896
2302,교보타워 버스정류장 신논현역 3번출구 후면 ,37.5055809,127.0242767
2303,논현역 7번출구,37.51137161,127.0214615
2304,대현그린타워 앞,37.5116272,127.0356522
2305,MCM 본사 직영점 앞,37.52064133,127.0345078
2306,압구정역 2번 출구 옆,37.5271225,127.028717
2307,압구정 한양 3차 아파트,37.52838135,127.0390167
2308,압구정파출소 앞,37.52930069,127.0355988
2309,청담역 우리들병원 앞 ,37.51890182,127.0493851
2310,청담동 맥도날드 옆 위치 ,37.52361298,127.0401764
2311,학동로 래미안 아파트 앞,37.51777267,127.0430222
2312,청담역 13번 출구 앞,37.52058029,127.0563278
2313,금원빌딩 앞,37.52511597,127.0524674
2314,청담나들목입구,37.52127457,127.0610352
2315,봉은사역 5번출구 옆,37.51424789,127.0611191
2316,삼성역 8번출구,37.50957489,127.0634079
2317,삼성도로공원,37.51588821,127.0662003
2318,삼성중앙역4번출구 문화센터더 리빌 ,37.51357651,127.0550308
2319,포스코사거리 서측 수협 삼성동 지점 ,37.50660706,127.0546799
2320,도곡역 대치지구대 방향,37.4919281,127.0569687
2321,학여울역 사거리,37.49611664,127.0694428
2322,삼성역 3번 출구,37.50809097,127.0631027
2323,주식회사 오뚜기 정문 앞,37.50221252,127.0672073
2324,천주교 대치 2동 교회 옆,37.50043869,127.0662231
2325,대치삼성아파트 앞 교차로,37.4986496,127.0593185
2326,대치동 삼성로,37.50239563,127.0587997
2327,뱅뱅사거리 랜드마크타워 앞,37.49055099,127.0314636
2328,르네상스 호텔 사거리 역삼지하보도 7번출구 앞,37.50321198,127.0427322
2329,르네상스호텔사거리 역삼지하보도 2번출구,37.50235748,127.04319
2330,역삼월드메르디앙아파트 앞,37.49219894,127.0394592
2331,동영문화센터앞,37.49805069,127.0446014
2332,선릉역3번출구,37.50400925,127.0490799
2333,양재역 3번출구 주변,37.48515701,127.0340729
2334,삼호아파트 2동   간선도로 ,37.49375916,127.0458984
2335,3호선 매봉역 3번출구앞,37.48676682,127.0467606
2336,강남세브란스교차로 래미안그레이튼 104동 앞,37.49423599,127.0474625
2337,대모산입구역 2번출구 앞,37.49207687,127.0719757
2339,현대아파트 정문 앞,37.48326111,127.0522995
2340,삼호물산버스정류장 23370  옆,37.47750854,127.0451737
2341,일원역 4~5번 출구 사이,37.4833107,127.0849381
2342,대청역 1번출구 뒤,37.49400711,127.0795136
2343,세곡사거리 대왕파출소 앞,37.46531677,127.1077271
2344,리엔파크 2단지 앞,37.46506119,127.1011963
2347,두산건설 본사,37.51863861,127.0354004
2348,포스코사거리 기업은행 ,37.50723267,127.0568543
2349,역삼빌딩 앞 하나은행 옆 ,37.50154495,127.0385666
2350,래미안그레이튼102동앞,37.49482346,127.047905
2351,청소년수련관 수영장 앞,37.48387909,127.0890274
2352,서울본부세관 건설회관 앞 ,37.51758957,127.0350266
2353,강남구청역 2번출구 뒤,37.51681137,127.0404739
2354,청담역 2번출구,37.51978683,127.0567627
2355,삼성역 5~6번 출구 사이,37.50912094,127.0623093
2356,강남구청,37.51807022,127.0471191
2357,르네상스호텔사거리 역삼지하보도 3번출구 앞  더 오번,37.50194931,127.0427704
2358,구룡초사거리  현대아파트10동 앞  ,37.48138428,127.0539169
2359,국립국악중고교 정문 맞은편,37.47560501,127.0503769
2360,도곡1동 주민센터 교차로,37.4928093,127.0413895
2362,신사동 가로수길 입구,37.51763535,127.0224533
2363,강남 을지병원 교차로,37.51913834,127.0275192
2364,도산공원교차로,37.52124023,127.0318985
2365,K+ 타워 앞,37.52330017,127.038475
2368,도곡동 경남아파트 건너편,37.48934174,127.0412979
2369,KT선릉타워,37.50542831,127.0528717
2370,한티역 3번출구,37.49655151,127.0542984
2371,한국우편사업진흥원,37.51474762,127.0351334
2372,대치역 사거리,37.49449921,127.063797
2373,개포동역 사거리,37.48927689,127.0655747
2375,수서역 1번출구 앞,37.48735046,127.1009979
2376,수서역 6번출구 앞,37.48677826,127.1005173
2377,수서역 5번출구 뒤,37.48735046,127.1023254
2380,삼성동베이직하우스앞,37.51169586,127.0493469
2381,언주역 6번출구앞,37.50636673,127.034523
2382,역삼동 sk뷰 501동앞,37.50134277,127.0504684
2383,보금자리정원,37.46632767,127.0948868
2384,자곡사거리,37.47602844,127.1059418
2385,학동역,37.51395035,127.0301514
2386,크린랩 본사,37.50958633,127.0409088
2387,래미안강남힐즈 사거리,37.47245407,127.096077
2388,강남구 도시관리공단,37.51678467,127.0516129
2389,경기여자고등학교 후문  삼성로3길 입구 ,37.48616028,127.0672379
2390,구룡마을 입구  래미안블레스티지 아파트 ,37.48088074,127.0630417
2391,구룡터널 입구 개포1단지아파트 ,37.47598648,127.0596237
2392,구룡산 입구  구룡산 서울둘레길 입구 ,37.47447205,127.0554504
2393,구룡사 앞 교차로  보도육교 ,37.47200012,127.0513382
2394,개포래미안포레스트아파트 107동 앞,37.48029709,127.0542603
2395,개포1단지아파트 입구  보도육교 ,37.47929001,127.0557327
2396,영동3교 북단 우성캐릭터 앞 보도 ,37.48574066,127.0510483
2398,더라움,37.50811005,127.0394516
2401,밀알학교 입구  삼성서울병원 입구 ,37.48656082,127.0826721
2403,공무원연금매점 교차로  개포주공9단지 입구 ,37.48871994,127.0745392
2404,대모산입구역 4번 출구 앞,37.49180984,127.0731583
2405,청담공원앞 교차로,37.51871109,127.0508499
2406,논현동 광명빌딩 앞,37.5175705,127.0236435
2407,역삼.서초.삼성 세무서 앞  역삼빌딩 앞 ,37.49847031,127.0301132
2408,강남한양수자인아파트,37.4773407,127.1132736
2409,역삼동 디오슈페리움  우성아파트 사거리 ,37.49206161,127.0307465
2410,포스코피앤에스타워  역삼역 3번출구 부근 ,37.49959946,127.0337524
2411,세곡동 성당,37.47296906,127.1122284
2412,일원1동 주민센터,37.49170303,127.0882263
2413,도곡역 1번 출구,37.49095917,127.0549851
2414,도곡역 아카데미스위트 앞,37.48897171,127.0518265
2415,한티역 롯데백화점 앞,37.49667358,127.0534287
2416,한티역 6번 출구,37.4958992,127.0521927
2417,선정릉 디캠프 D.CAMP 앞,37.50799942,127.0452499
2418,봉은사역 7번 출구,37.51393509,127.0598221
2419,봉은사역 12번 출구,37.51430893,127.0597
2420,학여울역 사거리 LG베스트샵 앞 ,37.49689484,127.070137
2421,신논현역 4번출구,37.504673,127.025795
2422,수서동 성당 맞은편,37.48416901,127.0948486
2423,영희초교 사거리 래미안개포루체하임 ,37.4908371,127.0806503
2425,세곡동 사거리 대왕초등학교 정류장 ,37.46461868,127.1068497
2426,강남한신휴플러스 6단지,37.46829605,127.1046982
2427,개포고등학교 정문앞,37.48485184,127.0583725
2428,롯데리아 개포점앞,37.48236847,127.0611877
2429,압구정로데오역 6번출구,37.52745438,127.0404282
2430,강남파이낸스센터앞 역삼역2번출구 ,37.50024414,127.0360565
2431,대치역 7번출구,37.49411774,127.0629044
2501,서초 포레스타5단지,37.45066071,127.0570602
2502,서초역1번출구 앞,37.49195099,127.0085526
2503,반포1동 서초빌딩 앞,37.50381088,127.0213623
2504,신사역 4번출구 뒤,37.51588058,127.0193024
2505,우성아파트사거리  기업은행앞 ,37.49325943,127.0295334
2506,LG유플러스  방배사옥 ,37.47909164,126.9906769
2508,양재이스타빌 앞,37.48297882,127.0422592
2509,심산기념문화센터,37.49836349,126.9911499
2510,JW타워,37.48303986,127.0214615
2511,이수역 6번출구 앞,37.48366165,126.9823227
2514,사평역 2번출구,37.50364304,127.0160217
2515,서초초등학교 후문,37.49892807,127.0247269
2516,본마을 노인복지센터 앞,37.45441818,127.052742
2517,서초3교 효령로69길 방면 ,37.48768234,127.0247879
2518,서초3교 효령로70길 방면 ,37.48731613,127.0248947
2519,서초2교 사임당로 방면 ,37.49100876,127.0235214
2520,서초1교  진흥아파트 방면 ,37.49619293,127.0210114
2521,서초 크로바타워 앞,37.49556351,127.0191803
2523,뉴코아 킴스클럽 앞,37.51019287,127.0072556
2524,반포쇼핑타운 8동 앞,37.50735092,127.0080185
2525,반포쇼핑타운 2동 앞,37.5056076,127.0021591
2526,반포경남쇼핑 앞,37.50478745,126.9999237
2527,반포중학교 앞 세화여고 맞은편 ,37.50296021,126.9935989
2528,함지박 사거리,37.4937706,126.9900665
2529,우리은행 방배동지점 앞,37.48991776,126.9920807
2530,삼호3차아파트 앞,37.4977951,126.9870682
2531,멤피스아파트 앞,37.49420547,126.989357
2532,국립국악원 앞,37.47820282,127.0087814
2533,한가람미술관 앞,37.48087692,127.0145264
2535,신반포역 3번출구 뒤,37.50362396,126.9973221
2536,서초종합체육관 입구,37.45924759,127.0416336
2537,양재역 8번출구 앞,37.48257065,127.036438
2538,사평리 공원,37.52026749,127.0152512
2539,대한무역투자진흥공사 KOTRA 앞,37.46540833,127.0437775
2540,반포천 앞,37.49905014,126.996254
2541,옛골 입구,37.43097687,127.0703354
2542,신논현역2번출구 신논현타워 앞 ,37.50508881,127.0239105
2545,국립중앙도서관 국제회의장옆 ,37.49721146,127.0042725
2547,포드서초서비스센터앞,37.51904678,127.0122833
2548,반포1동 자율방범초소 옆,37.50847626,127.0167618
2549,LH 서초 4단지 403동,37.45924759,127.0239029
2550,양재동 꽃시장 건너편,37.46738434,127.0414581
2601,석촌호수 서호사거리,37.5067482,127.0988312
2603,송파 글마루 도서관,37.48095322,127.1301041
2604,풍납토성 서성벽터A,37.53131104,127.1112824
2605,복정역 1번 출구 앞,37.47129822,127.1270905
2606,위례동주민센터 맞은편 근린공원,37.48173904,127.1432266
2608,송파구청,37.5150528,127.1062698
2609,보성중고등학교 후문 앞,37.52048874,127.1352005
2610,여흥레이크빌 앞  석촌호수 까페거리 ,37.51045227,127.1064072
2611,송파지역자활센터 뒤,37.53641891,127.1161652
2612,문정·가락 대여소 앞,37.48871994,127.1098251
2613,잠실나들목,37.51678085,127.0904923
2614,가락고등학교 앞,37.50186157,127.1172333
2615,테라타워2,37.48834991,127.1207809
2616,거여동 사거리,37.49704742,127.1403503
2617,가락삼환아파트 앞,37.49618149,127.138031
2618,삼전역 1번출구,37.50471115,127.0875626
2619,석촌고분역 5번출구,37.50233841,127.0964432
2620,송파나루역 4번 출구옆,37.50997925,127.1123123
2621,한성백제역 2번 출구,37.51665878,127.1162567
2622,올림픽공원역 3번출구,37.51625824,127.1305924
2623,석촌동 주민센터,37.50362396,127.1035538
2625,가락종합 사회복지관,37.4955368,127.1072006
2626,경찰병원역 12번 출구 사이,37.49569321,127.1238556
2627,문정시영아파트 5동 앞 공원,37.4911232,127.135109
2628,문정역 1번출구,37.48669815,127.1224442
2630,서울방이동 고분군,37.50786591,127.1169891
2631,배명고등학교,37.49741364,127.0963059
2632,석촌고분역 2번 출구,37.50264359,127.0973969
2633,송파학사 옆,37.47817993,127.1471024
2634,위례포레샤인아파트 2318동,37.477211,127.1371765
2635,잠실새내역 1번출구,37.51129532,127.0867386
2637,아시아지하보도 14번 출구,37.51146317,127.0788117
2638,쌍용아파트,37.52681351,127.1181488
2639,석촌역 8번출구,37.50550461,127.106575
2641,송파역 4번출구,37.50004959,127.1115112
2642,마천동 성내천 쉼터,37.50149536,127.1477814
2643,풍납중학교 측면,37.52515793,127.1169434
2644,성내5교,37.50166702,127.1377411
2645,잠실나들목2 엘스아파트136동 ,37.51621246,127.084343
2646,레이크펠리스101동앞,37.50775909,127.0912933
2647,잠실 자전거 수리센터 앞,37.51156998,127.1010742
2648,헬리오시티 112동 앞,37.49469757,127.1046448
2649,오금공원사거리2,37.50544357,127.1323319
2650,위례22단지 2208동 다리앞,37.47854996,127.1381378
2651,경찰병원역 3번출구 앞,37.49577332,127.1245804
2652,송파 레미니스1단지 102동 앞,37.50883102,127.1342621
2653,올림픽공원사거리 선수촌아파트 ,37.51202011,127.1286469
2654,올림픽선수촌아파트 136동 앞,37.50997543,127.1336975
2655,송이공원,37.50057983,127.1188431
2656,풍납동 아이파크 107동 앞,37.52480316,127.1146393
2657,송파 파인타운 11단지,37.47916031,127.1321945
2658,가락몰 업무동,37.49535751,127.1156921
2659,서울친환경유통센터,37.49416733,127.1045303
2701,마곡나루역 5번출구 뒤편,37.56520081,126.8273163
2702,마곡 엠밸리2단지,37.56917953,126.8194428
2703,서울도시가스 앞 ,37.54748535,126.8720245
2704,홈플러스 강서점 ,37.55852127,126.8540115
2706,강서공업고등학교 앞,37.57631683,126.8164978
2707,한강아파트,37.57036972,126.8444138
2708,강서한강자이타워 앞,37.56468201,126.8489075
2709,강변아파트 310동 앞,37.56458664,126.8569183
2710,라이품 공영주차장 앞,37.57131958,126.8416672
2711,가로공원공영주차장 1번 출구,37.53736115,126.8374481
2712,화곡터널입구교차로,37.53835678,126.8423615
2713,우장초등학교 앞,37.54853439,126.8466721
2715,마곡나루역 2번 출구 ,37.56692505,126.8274384
2716,롯데 R&D 센터,37.57094193,126.8283157
2717,LG유플러스 마곡사옥,37.56133652,126.8339005
2718,마곡수명산파크1단지,37.55524826,126.8322983
2719,마곡문화공원,37.56121063,126.8303452
2720,힐스테이트에코,37.55965805,126.8296051
2721,등촌1-10단지 교차로,37.56320572,126.8393631
2722,마곡 문영비지웍스,37.56188202,126.8391571
2723,마곡 필네이처,37.56089401,126.8366928
2724, 재 FITI시험연구원,37.56848526,126.8385696
2725,서울식물원 식물문화센터,37.56883621,126.8356323
2727,서울식물원 잔디마당 앞,37.56408691,126.8308487
2728,마곡나루역 3번 출구,37.56580353,126.8280792
2729,넥센 유니버시티 앞,37.56948471,126.8280945
2730,마곡메가박스 앞,37.55912781,126.8349533
2731,명덕고교,37.55524063,126.8347168
2732,마곡수명산 1-2단지 ,37.5553093,126.8298569
2733,마곡13단지 정문 앞,37.5586319,126.8199158
2735,마곡 공공청사,37.56229401,126.8239517
2737,까치산역 3번 출구,37.53158951,126.8466415
2739,수명산파크1단지교차로,37.55363083,126.8286133
2740,마곡레포츠센터,37.57297516,126.8324432
2741,마곡수명산파크5-6단지,37.55061722,126.8268814
2742,강서구민올림픽체육센터,37.55990601,126.8504257
2743,동신아파트 104동 앞,37.57204437,126.8440018
2744,강서세무서앞,37.56209183,126.8209686
2745,수명초등학교,37.5525589,126.8231125
2746,수명산파크4단지411동 앞,37.55134964,126.8249359
2801,대륭포스트타워1차,37.48437119,126.8954239
2804,항동지구 6단지 602동 앞,37.47737503,126.820015
2805,구로자원순환센터 ,37.48250961,126.8257599
2806,항동지구 4단지 입구,37.48259735,126.8264542
2807,항동지구 1단지 105동 앞,37.48062897,126.8218155
2808,항동지구 2단지 202동 앞,37.48080826,126.821907
2809,항동지구 11단지 1103동 앞,37.47790527,126.8231125
2810,항동지구 3단지 311동 앞,37.47793961,126.8232727
2812,항동프라자,37.4798317,126.8227539
2813,항동지구 3단지 302동 앞,37.47937012,126.82547
2814,항동지구 10단지 1001동 앞,37.47934341,126.8256378
2815,항동지구 7단지 정문,37.47603607,126.8165894
2816,항동지구 8단지 803동옆 주차장입구 ,37.47473145,126.817009
2817,천왕이펜하우5단지 앞,37.47989655,126.8403702
2818,천왕이펜하우스3단지 앞,37.48223877,126.8385315
2819,하늘숲초등학교 앞,37.48366547,126.8416138
2820,신세기아파트 앞,37.49396515,126.8530426
2821,청구아파트 앞,37.50119019,126.863533
2822,제니스스포츠 앞,37.50452042,126.8705521
2823,중앙유통단지 앞,37.49981308,126.8743134
2824,미래사랑어린이공원 앞,37.51006317,126.8895645
2825,초롱타운 앞,37.49545288,126.880394
2826,가마산지하보도 옆,37.48864746,126.8804703
2901,공릉동풍림아파트 101동,37.62981415,127.0665054
2902,공릉풍림아파트 108동,37.62862015,127.0669098
2903,월계초안아파트 1단지,37.63372803,127.0443649
2904,중계3차청구아파트,37.65050507,127.0739822
2907, 월계중학교,37.63074875,127.0531082
2908, 광운대학교 중앙도서관,37.62000275,127.0585632
2909, 석계역 3번 출구,37.61545944,127.0674515
2910,도깨비시장,37.6220932,127.0744247
2911,상계역중앙시장,37.6588707,127.0719147
2912,대진고등학교,37.63815689,127.0732651
2913,상계8동 주민센터,37.666996,127.0515289
2914,서울과학기술대학교 미래관 ,37.62950897,127.0810394
2915,서울과학기술대학교 어학교육원 ,37.63489914,127.0776749
2917,신창중학교 후문 맞은편 버스정류장,37.62807083,127.0469208
2919,등나무 근린공원 시립북서울미술관 앞  ,37.63999557,127.0665741
2920,상계중학교 당현2교사거리 ,37.65103531,127.0687103
2921,중계역 2번출구,37.64548874,127.0645828
3002,벽산상암스마트큐브 ,37.5650444,126.9036026
3003,래미안공덕3차아파트,37.54554749,126.9567947
3005,마포구청 청사내,37.56624603,126.9021835
3006, 상암월드컵파크5단지 상암중학교 ,37.57948685,126.8873901
3007,MBC 앞,37.58194733,126.8902969
3008,DMC역7번출구,37.57711411,126.8983612
3009,서교동사거리 신 ,37.55583954,126.920433
3010,홍대입구역 3번출구,37.5582962,126.9253845
3011,경의선 노고산동 ,37.55342865,126.9337921
3013,서울고용노동청본청,37.56761551,126.9872437
3100,북성초교,37.55739594,126.9521637
3101,서대문구청,37.57838058,126.9360962
3102,연희삼거리,37.56799698,126.9316559
3103,홍제삼거리 북측,37.58670044,126.9467697
3104,e편한세상 신촌4단지 앞,37.55812836,126.9562073
3105,홍은센트레빌 아파트 앞,37.5971489,126.93853
3107,연희초등학교 앞,37.56962967,126.9333115
3109,북한산더 106동 앞,37.59293365,126.9412918
3110,홍은 현대아이파크 아파트 202동 앞,37.58928299,126.9369431
3111,무악재역 4번 출구,37.58221054,126.9501648
3112,독립문역 5번 출구,37.57386017,126.9582977
3113,독립문역사거리,37.57220459,126.9597473
3114,충정로역 3번 출구,37.56046295,126.9655228
3115,북아현 치안센터 인근,37.56145477,126.9557495
3116,신촌역 4번출구,37.55550385,126.9372025
3117,이화여대 인문관 인근,37.56406784,126.9453278
3119,연희 브라운스톤 아파트 앞,37.56519699,126.9298554
3120,DMC엘가아파트 앞,37.56983566,126.9180908
3121,가좌삼거리,37.57065201,126.9129868
3122,북가좌삼거리2,37.5742836,126.9064636
3123,DMC파크뷰자이1단지 110동 앞,37.5723877,126.9151077
3125,연희파크푸르지오아파트 앞,37.57564163,126.9278259
3126,남가좌동 제2공영주차장,37.58334351,126.9227448
3127,홍은2파출소 옆,37.58333588,126.9362869
3128,동신병원 맞은편,37.5813179,126.935997
3129,DMC래미안e편한세상203동옆,37.57626343,126.9113236
3130,가재울사거리,37.57456207,126.9179916
3131,연가교 교차로,37.57215881,126.9211884
3132,홍제교,37.59186172,126.9442139
3133,핀란드 타워앞,37.55711365,126.9488144
3134,SK리체블 상수도사업본부 ,37.56131744,126.9665833
3201,당산skv1센터,37.53073502,126.8991699
3202,당산롯데캐슬프레스티지,37.52869034,126.903862
3203,도림동배드민턴체육관,37.50611496,126.8985901
3204,도림고가도로 밑,37.51124191,126.8981857
3205,문래중학교,37.5202179,126.882164
3206,문래동 주민센터,37.51707077,126.899086
3207,양남사거리 1,37.5218277,126.8897247
3211,신길 래미안 프레비뉴,37.50438309,126.9080887
3212,신풍역 6번출구,37.50017166,126.9113083
3214,영등포 푸르지오,37.51202393,126.9010544
3215,강변삼성래미안,37.52974319,126.9078293
3220,래미안에스티움 신풍로  앞,37.50013733,126.9139786
3221,서울특별시 남부교육지원청,37.51933289,126.8953018
3305,낙성대역 8번 출구,37.47677612,126.9648666
3306,서울신우초등학교,37.46214676,126.931778
3307,봉천고개 육교,37.4912262,126.9560776
3310,영락고등학교,37.47662735,126.9436417
3311,서울대입구역 4번 출구,37.48122025,126.9515762
3401,창신두산아파트,37.57376099,127.0139389
3402,이화공영주차장,37.57660675,127.0055695
3403,서울특별시 교육청,37.5695076,126.9670105
3404,서울특별시 중부교육지원청,37.57185364,127.0023575
3405,파크팰리스,37.57455063,126.9705505
3406,세종로공원,37.57407761,126.9759064
3407,안국동사거리 신 ,37.57580566,126.9833908
3408,종로타워빌딩,37.57051086,126.9833679
3410,종로3가역 8번출구,37.5724678,126.99189
3411,종묘,37.5707016,126.994812
3412,세운상가,37.5703125,126.994545
3413,종로플레이스,37.57320023,126.997963
3414,종로5가역 4번출구,37.57117462,127.0022278
3415,동대문역6번출구,37.57146072,127.010788
3416,동묘앞역 6번출구,37.5715332,127.0156174
3417,창신3동주민센터,37.57772446,127.0152512
3418,창신역2번 출구,37.57998657,127.0150604
3419,국립어린이과학관,37.58194733,126.9973679
3420,성균관대입구사거리,37.58327484,126.9988556
3421,혜화역 1번출구,37.58385468,127.0018539
3422,성균관대 정문,37.58479691,126.9971314
3423,현대그룹 본사 ,37.57583618,127.0006943
3425,광화문 풍림스페이스본 1단지앞,37.57529068,126.968956
3426,독립문역 2번출구 뒤,37.57501602,126.9575501
3427,인왕산 아이파크 정문,37.57666779,126.9558487
3428,서울미술관,37.59512711,126.9634934
3429,AW컨벤션앞,37.59725952,126.963089
3430,구기치안센터 앞,37.60950089,126.9566803
3431,로제우스 레포츠센터,37.60760117,126.9576874
3432,종로2가 사거리,37.56999207,126.9883423
3500,군자역2번출구,37.55758667,127.0796967
3501,광진구청 앞,37.53950119,127.0830002
3502,중곡역 1번출구,37.56565857,127.0842972
3503,광진유진스웰,37.55048752,127.1089554
3504,원일교회,37.53805161,127.0765991
3505,신양초교앞 교차로,37.5352211,127.0683975
3506,영동대교 북단,37.53701401,127.0610962
3507,어린이회관,37.54595184,127.0780029
3508,화양사거리,37.54822159,127.0678787
3509,세종사이버대학교,37.55341721,127.0731964
3510,중곡SK아파트앞,37.56864929,127.0862503
3511,응봉역 1번출구,37.55125046,127.0351028
3513,상왕십리역 1번출구,37.56460953,127.0291977
3514,왕십리교회옆,37.56626129,127.0236969
3515,서울숲 관리사무소,37.54281616,127.0420837
3516,구의아리수정수센터앞,37.54370499,127.0932465
3517,용마사거리,37.5625267,127.0822754
3518,군자역 7번출구뒤,37.55686188,127.0791397
3520,광진경찰서,37.54251862,127.0840836
3521,현대홈타운 뒷길,37.54342651,127.0966187
3523,건국대학교 과학관 이과대  앞,37.54171753,127.0801697
3524,세종대학교,37.55023575,127.073822
3525,금호스포츠센터앞,37.54608917,127.0250702
3527,왕십리 자이아파트,37.56179047,127.0243912
3528,광진정보도서관,37.55059814,127.1105118
3529,어린이대공원정문,37.54978943,127.0759277
3530,왕십리자이아파트 후문 삼거리 ,37.56014633,127.0263596
3531,논골사거리 금호도서관 입구 ,37.55477905,127.0248413
3532,왕십리KCC스위첸아파트,37.56068039,127.0267792
3533,건대입구역 사거리 롯데백화점 ,37.53913879,127.0706177
3534,건대입구역 5번출구 뒤,37.54013824,127.0692825
3536,중앙농협 자양동 ,37.53181076,127.0807419
3537,아차산 휴먼시아 아파트 옆,37.54848862,127.0937576
3538,서울숲 IT캐슬,37.55089188,127.0447617
3539,서원마을,37.56379318,127.1328354
3541,커먼그라운드,37.54124832,127.06604
3542,래미안 구의파크 스위트,37.5450058,127.0900345
3543,세종대학교 학술정보원 ,37.55137253,127.07444
3544,한양대역 3번 출구,37.55453873,127.0437775
3545,한양대역 1번출구,37.55657959,127.0433579
3547,상왕십리역 6번 출입구,37.56438065,127.0288696
3548,뚝섬역 6번출구,37.54695892,127.0476685
3549,건영아파트 앞,37.55514145,127.071106
3550,금호나들목,37.54404068,127.023201
3551,성동도로사업소,37.55979919,127.0563278
3552,서울숲 공영주차장앞,37.54195786,127.0427704
3553,마장역3번출구,37.565979,127.0431137
3555,양지사거리 센트라스APT 115동앞 ,37.56681824,127.0291519
3556,신금호파크자이APT앞,37.55610657,127.019783
3557,서울숲리버뷰자이APT105동 앞,37.55653,127.0391312
3558,마장동 금호어울림APT앞,37.56339645,127.0418701
3559,성동구민종합체육센터 앞,37.54590988,127.0446014
3560,성동구 견인차량 보관소 앞,37.56370926,127.0564499
3561,행당동 삼부APT후문,37.55926895,127.0383987
3563,구의7단지현대아파트,37.53680038,127.0908356
3564,나루마당,37.54707336,127.0982895
3566,우성4차아파트,37.53507233,127.0761108
3569,건대병원후문,37.53956604,127.0724411
3570,구의역 리버비스타 오피스텔,37.53809738,127.0890198
3571,화양 APT 횡단보도 옆 ,37.54434967,127.0654068
3573,광나루안전체험관,37.5513382,127.0767136
3575,자양사거리 서원빌딩 ,37.53657532,127.0825806
3578,중곡동 파크웨이빌딩,37.55500793,127.0858154
3579,광진 캠퍼스시티,37.54788971,127.0674515
3581,광진광장,37.54747009,127.073967
3582,화양동 우체국,37.54798889,127.0695038
3586,군자역 비채온 오피스텔,37.55771255,127.0772705
3587,우성식품 앞,37.54246521,127.0942307
3588,세종대학교 영실관 ,37.55237198,127.0735397
3600,사근빗물펌프장 건너편,37.56119156,127.0496826
3602,한국지역난방공사 강남지사,37.49229431,127.0943375
3603,삼성역 2번출구,37.5082016,127.0639648
3604,삼성중앙역 5번출구 하이마트앞 ,37.51311111,127.0539093
3605,봉은사역6번출구 현대아이파크타워앞 ,37.51390839,127.06073
3606,신사동주민센터 옆,37.52422714,127.02285
3609,언주초등학교 입구,37.48536682,127.0384979
3610,윗반마을 입구,37.46534729,127.1088028
3611,방죽마을 입구,37.47123337,127.1072159
3612,은곡마을,37.46726227,127.0980148
3614,은마아파트 입구 사거리 1 ,37.49840164,127.060936
3615,서울 논현동우체국 앞,37.51446152,127.0326004
3616,역삼중학교 앞 체육관 방향 ,37.49526215,127.0495071
3618,서울율현초교 삼거리,37.47364044,127.1070252
3620,청담역 11번 출구,37.51925659,127.0515976
3621,휘문고교 사거리,37.50286484,127.0659409
3622,은마아파트입구 사거리 2 ,37.49986649,127.0605011
3623,일원에코파크 앞 개포로 방면 ,37.49587631,127.0865021
3624,대모산입구역 7번 출구 앞,37.49017715,127.0730591
3627,압구정나들목,37.53075027,127.0416031
3628,역삼1동 주민센터,37.49500275,127.0329437
3629,청담사거리 신한오피스텔빌딩 앞 ,37.52416229,127.0489502
3630,개포우성6차아파트 정문 앞,37.47685623,127.0553665
3634,국악고교 앞 교차로,37.47402191,127.0484467
3636,삼성중앙역·플래티넘아파트 정류소,37.51264191,127.0515671
3637,세곡데이케어센터,37.46072388,127.1028748
3638,신청담나들목,37.52796173,127.0516281
3640,일원1동 주민센터 앞 사거리,37.4909668,127.0883637
3641,대청역,37.49370575,127.0799942
3642,LH강남힐스테이트아파트,37.47092819,127.0897064
3643,더시그넘하우스 앞,37.47267914,127.1037598
3644,상록수아파트,37.48276138,127.0804215
3646,선정릉역 4번 출구,37.5097847,127.0427704
3647,구룡역 1번 출구,37.48642349,127.0593185
3648,구룡역 4번 출구,37.48670578,127.0605011
3649,구룡역 5번 출구,37.48607635,127.0592194
3651,개포동역 4번출구,37.48929596,127.0661697
3652,한영외국어고등학교,37.54883575,127.1561737
3653,강동리버스트4단지아파트 404동 앞,37.57201385,127.1717072
3654,강동리버스트4단지아파트 405동 앞,37.57201767,127.1729507
3655,둔촌신성미소지움아파트,37.52726364,127.142334
3656,둔촌푸르지오아파트,37.53407288,127.1450043
3657,서울천호동우체국,37.54074097,127.1257629
3658,프라이어팰리스아파트,37.5546875,127.1394043
3659,명일초등학교 옆,37.55464554,127.1425324
3661,명일동신동아아파트 앞,37.55483246,127.1517334
3663,암사정수센터교차로 강동롯데캐슬퍼스트아파트,37.55845642,127.1441574
3664,맥도날드 서울둔촌DT점 앞,37.52958679,127.1370316
3665,고덕센트럴 아이파크상가 앞,37.55058289,127.1654205
3668,성내삼성아파트,37.53137589,127.1270752
3671,둔촌동역교차로,37.52920532,127.1368027
3672,고덕중학교 후문,37.56066513,127.1612854
3673,강동리버스트6단지,37.57095337,127.1717453
3674,강동리버스트7단지,37.57073975,127.1721573
3675,강동리버스트8단지,37.57180405,127.174469
3676,강동리엔파크9단지,37.55736542,127.1801376
3677,강동구음식물재활용센터,37.56953812,127.1585999
3680,강동역3번출구,37.53541565,127.1330948
3681,길동 마루빌딩,37.53676987,127.1395493
3682,길동 동호빌딩,37.54154587,127.1414795
3683,KT&G강동지사,37.5437088,127.1422806
3684,고덕자이 105동 앞 ,37.55361176,127.1720352
3685,강동리엔파크14단지 1401동 앞 ,37.55212402,127.1806412
3686,고덕 래미안 힐스테이트 101동 ,37.55885696,127.1514893
3687,신명초교입구 교차로,37.54076767,127.1468811
3688,상일동산 동아아파트앞 교차로 ,37.54581833,127.1668854
3689,강일역 3번출구,37.55740356,127.1765366
3690,강일역 4번출구,37.55707169,127.1751404
3691,둔촌역 2번출구,37.52722931,127.1363525
3692,둔촌오륜역 1번 출구,37.51960373,127.13871
3694,강동리엔파크 11단지,37.55408859,127.1796265
3698,명일역 3번출구 옆,37.55142593,127.1442108
3699,상일파출소 옆,37.55655289,127.1658783
3703,신성교회 앞,37.61708832,127.0280991
3707,드래곤타워 앞,37.63713455,127.0313797
3711,월계2교 교차로,37.6242218,127.0492172
3714,송천센트레빌,37.61220932,127.0249786
3718,번동 SK LPG 충전소,37.628685,127.0439072
3753,공항중학교 버스정류장,37.56113434,126.8161011
3754,신방화역 8번출구,37.5674057,126.8162155
3756,마곡힐스테이트 정문,37.56497574,126.8174057
3757,신방화역 6번출구,37.56692886,126.8168411
3758,서울남부출입국관리소,37.56059265,126.8208466
3759,이대서울병원,37.5586319,126.8355942
3760,발산역 8번 출구,37.55846024,126.8367615
3761,나이아가라관광호텔,37.5490303,126.8783646
3762,마곡9단지 907동앞,37.5606842,126.8191834
3763,등촌태영아파트,37.55603027,126.864296
3764,관문주유소 GS칼택스  앞,37.55802917,126.841835
3765,문소빌딩,37.54555511,126.8444977
3766,강서문화센터,37.54457855,126.8437805
3767,대원빌딩,37.54536819,126.8447037
3769,증미역 2번출구,37.55713272,126.8631439
3770,남부순환로 205,37.54739761,126.8214111
3772,길성그랑프리텔아파트,37.5692482,126.8165054
3774,마곡9단지 910동 상가앞,37.56108475,126.8167954
3775,가양오토갤러리,37.56644058,126.844307
3776,김포공항교차로,37.5675354,126.8051834
3778,김포공항입구 교차로,37.56179428,126.80793
3779,유광사여성병원,37.54323959,126.8386307
3780,등촌서광아파트,37.55755234,126.8562546
3781,강서아동복지센터,37.58458328,126.8109207
3782,겸재정선미술관,37.57128906,126.8377762
3783,마곡금호어울림아파트,37.57410049,126.8371124
3784,벽산아파트,37.57531738,126.8366699
3785,마곡14단지 1408동앞,37.55737305,126.8233261
3786,강서힐스테이트 상가 앞,37.54663849,126.8365784
3787,가양나들목,37.57386398,126.8434753
3788,정곡나들목,37.5841713,126.8193283
3789,염창나들목,37.55680466,126.8715591
3792,화곡본동시장 입구,37.54382706,126.843689
3793,더리브골드타워,37.56557083,126.8462448
3794,안양천합수부 현대3차아파트 ,37.55224609,126.8764877
3795,공항신성빌딩 앞,37.56130981,126.8130722
3796,송정역 3번출구 앞,37.56096268,126.8126907
3797,마곡수명산파크7단지 710동 앞,37.54857254,126.8207626
3798,그랜드아이파트아파트 앞,37.55510712,126.8515472
3799,국립항공박물관,37.55688477,126.8092651
3801,이랜드글로벌R&D센터,37.56719208,126.8347549
3802,관악구민체육센터,37.47288132,126.9600372
3803,남서울중학교,37.48313141,126.9213562
3804,낙성대공원,37.47183609,126.9586182
3806,낙성대 교수아파트,37.46895981,126.9576569
3807,관악우체국 교차로,37.48497391,126.934372
3810,신봉천주유소,37.47888184,126.9584198
3811,신사로입구,37.48675156,126.9227219
3812,KT관악지점,37.48163223,126.9471893
3813,낙성대역 5번출구,37.47752762,126.9627686
3814,난곡사거리 ,37.48204803,126.9152451
3815,광일빌딩,37.47639847,126.9768372
3816,관악 GSfresh,37.47909164,126.9494171
3818,은천교회 앞,37.48857117,126.9213867
3853,어린이대공원역 2번출구,37.54764938,127.074707
3860,건국대학교 정문 앞,37.5465126,127.0757141
3863,동일로58길 입구,37.55775452,127.0729752
3864,광진소방서 앞,37.5450058,127.083374
3865,이튼타워리버 2차,37.53520966,127.0690002
3868,자양한강도서관,37.52916336,127.0779877
3873,동서울우편집중국 앞,37.53470993,127.0844727
3878,장로회신학대학교 주기철 기념관,37.54983902,127.1030273
3879,중랑천 뚝방길 산책로 입구,37.56628036,127.0774765
3880,홍련봉 공원,37.54896927,127.0935288
3881, 신자초교입구 교차로,37.53298569,127.0757904
3882,자양2동 주민센터,37.52879333,127.0846329
3886,광진구 민방위교육센터,37.5391922,127.0980148
3902,항동지구5단지 501동 앞,37.47819901,126.8248749
3903,현대아파트 앞,37.49333954,126.8591766
3904,테크노마트 앞,37.50624084,126.8911438
3905,희훈타워빌 앞,37.50191498,126.8892441
3906,천왕차량사업소 입구,37.47604752,126.8450165
3907,신도림7차e편한세상아파트 803동 앞,37.50862503,126.8835373
3908,동선오피스텔 앞,37.49267197,126.8416214
3910,목양전원교회 앞 로터리 2 ,37.48389053,126.8221817
3911,항동하버리안2단지아파트 후문,37.48337555,126.8224793
3912,삼호아파트 앞,37.49385834,126.8564682
3914,신도림쌍용플래티넘노블아파트 앞,37.50126266,126.891182
3915,동선아파트 앞,37.49382782,126.8390732
3917,성공회대학교,37.48859024,126.8247833
3918,이좋은집오피스텔 앞,37.4949913,126.8418503
3919,CGV구로 앞,37.50096512,126.88237
3920,개봉역2번출구 B,37.49539566,126.8576355
3922,서울남부교정시설 앞,37.47715378,126.839859
3923,구로공구상가 앞,37.50075531,126.8770828
3956,대륭테크노타운21차 앞,37.46557617,126.8872452
3958,롯데캐슬2차 마을버스 정류장 18804 뒤편,37.45739746,126.8934174
3959,시흥사거리 시흥동 994-3 앞 ,37.45415115,126.9004517
3963,에이스 하드웨어 시흥대로 396  앞,37.46865845,126.898262
3966,독산역1번출구 옆 2 ,37.46709442,126.8892059
3967,혜명양로원 담장 옆 2 ,37.45191956,126.9137573
3968,독산동 현대홈타운 금천과선교 앞,37.46222305,126.8918152
3969,독산역 롯데캐슬 104동 앞,37.46239853,126.8917542
3970,시흥4동주민센터 앞,37.45894241,126.9059296
3971,순흥안씨묘 건너편,37.45838165,126.9080734
3972,산기슭공원 앞,37.46272278,126.9072189
3973,독산2동주민센터 앞,37.46298599,126.9037094
3974, 안천중학교,37.45936584,126.8867798
3975,현대시티아울렛 가산,37.47739792,126.8887787
3977,말미사거리,37.46639633,126.8974838
3980,금천현대홈타운 후문 서부샛길,37.46139526,126.8900375
3983,금천구청역 1번 출구,37.45703506,126.8943253
3984,가산롯데아이티캐슬,37.47636795,126.8808365
3985,디폴리스 지식산업센터,37.48017502,126.8768005
4002,상계주공 14단지 상가 앞,37.66963577,127.0597076
4003,상계초교 입구 교차로 명주빌딩 앞,37.65680313,127.0665741
4004,당고개입구오거리 당현천변,37.66260529,127.0755768
4005,중계2차 한화꿈에그린 101동 인근,37.65955734,127.0752564
4007,노원 을지대학교 병원,37.63666916,127.0696945
4008,하계 어린이 공원,37.63214493,127.0698242
4009,월계프라자,37.63284302,127.0521317
4011,월계 센트럴 아이파크,37.62917328,127.0569305
4013,중계 롯데마트,37.64584351,127.070755
4014,당고개역 3번 출구,37.67030334,127.0788422
4016,노원 마들스타디움,37.64530945,127.0574417
4017,월계 청백1단지 아파트 정류장,37.63535309,127.0521698
4018,상계주공15단지 버스정류소,37.66782761,127.056839
4019,상계주공10단지 버스정류소,37.66214371,127.058197
4020,중계동 성모빌딩 앞 ,37.65116119,127.0765915
4021,중계본동 입구,37.64426041,127.083313
4023,월계역 1번 출구,37.63441086,127.0588684
4024,꿈의숲 SK뷰 아파트,37.62045288,127.054451
4025,한천교 동편,37.62533569,127.0701904
4026,상계주공1단지아파트,37.64795303,127.0579376
4027,한내 행복발전소 옆,37.62741089,127.0621414
4028,한일유앤아이아파트 105동 인근,37.65351868,127.0713043
4029,청소년수련관 후문,37.6396637,127.0604172
4031,청암예술학교 앞,37.65153503,127.0732727
4032,은행사거리 성모빌딩 앞,37.65149689,127.0770416
4033,녹천 자동차운전 전문학원 녹천역 4번 출구,37.64292908,127.0519486
4034,상계근린공원 운동장 앞,37.67099762,127.0501785
4035,수락 행복발전소 앞,37.67449188,127.0594559
4036,하계역 6번출구,37.63793945,127.0671539
4037,물넘이교,37.65408325,127.0719528
4039,서울시 북부여성발전센터,37.64304352,127.0621338
4040,공릉로 26길,37.61965561,127.0814667
4041,공릉역3번출구,37.62500381,127.0730133
4042,상계문화정보도서관,37.67851257,127.0517426
4043,상계주공13단지 1301동,37.66674042,127.0638886
4044,공릉산 백세문 입구,37.62812042,127.0854874
4045,은하수 공원,37.63000488,127.0440979
4046,경춘선 숲길,37.62099075,127.0787506
4048,신도1차아파트앞,37.62821198,127.0704651
4054,KT프라자도봉점 맞은편,37.64601898,127.0352707
4058,다락원체육공원 전망대 입구,37.69101334,127.0491638
4062,평화도봉공원 주변,37.66252136,127.0427094
4064,신창아파트 입구 앞,37.64051056,127.0408249
4065,창동역 1번출구 앞,37.65373611,127.0492935
4073,방아골종합사회복지관,37.66927338,127.0324326
4074,도봉구육아종합지원센터 창동 ,37.63342667,127.0411606
4076,진영상운 앞 중랑천 변,37.65999603,127.0512772
4077,도봉제1교,37.67984772,127.0503845
4078,원당공원 앞,37.65854645,127.0276794
4080,창동주공19단지앞 ,37.65250778,127.0522766
4083,도봉아이나라도서관 앞,37.65898895,127.049736
4084,도봉동실내스포츠센터,37.68125534,127.0504761
4086,도봉로 534대여소,37.6529541,127.0375443
4087,우이교 교차로 대여소,37.6432457,127.031601
4088,김근태도서관 대여소,37.68750763,127.0426331
4102,휘경1동주민센터 앞,37.59286499,127.0655594
4103,휘경sk뷰아파트 앞,37.59383774,127.0678177
4104,외대앞역 교차로,37.59436417,127.0645981
4105,하나은행 장안동지점앞,37.56324005,127.057991
4107,장안동근린공원 입구,37.57739639,127.0718536
4108,답십리파크자이아파트 앞,37.5676918,127.0578919
4110,용두롯데캐슬리치아파트 앞,37.57958603,127.0302429
4113,한국국방연구원 앞,37.59139633,127.0402985
4114,휘경여중고삼거리,37.58392334,127.0682755
4116,이문e편한세상아파트 앞,37.60460281,127.0669251
4117,휘경119안전센터 앞,37.59087372,127.065361
4121,서울문화재단 앞,37.57130051,127.0336227
4122,청계9가교차로 앞,37.57014847,127.0299225
4123,배봉초교 교차로,37.57846832,127.0668945
4125,회기역 2-①번출구,37.58945084,127.0595627
4152,상도효성해링턴플레이스,37.50543213,126.9415131
4153,흑성동효사정앞,37.51120377,126.9612808
4158,노량진근린공원,37.50680542,126.9285049
4162,노량진1동 청소년독서실,37.50785828,126.9471359
4167,구로교 아래,37.48548126,126.9036484
4169,신대방삼거리,37.49845505,126.9279785
4171,우성아파트 앞,37.49157715,126.9088135
4173,중대후문 마을버스정류장,37.50444412,126.9502564
4175,대방역2번출구,37.51262665,126.9274139
4177,롯데캐슬 101동 앞,37.50157547,126.9459076
4178,이수성결교회 옆,37.49814987,126.9836884
4202,프런트원 공덕역 4번출구 앞 ,37.54585266,126.9525986
4206,광흥창역5번출구,37.54737854,126.931633
4207,아만티호텔 앞,37.5573082,126.9188538
4208,스타벅스 동교동  앞,37.5566597,126.9198685
4210,가좌행복주택 앞,37.56949234,126.9118424
4211,시석빌딩 앞,37.5483017,126.9167175
4212,한화오벨리스크 앞,37.58332062,126.8815613
4213,마포구중앙도서관 정문 앞,37.56415558,126.9081497
4214,JTBC 앞,37.57730484,126.8901825
4216,망원정 앞,37.5500679,126.9048004
4217,한강공원 망원나들목,37.55557632,126.8968887
4218,디지털매직스페이스,37.58119965,126.8895798
4220,신촌 청년주택,37.54985428,126.9320374
4221,솔리스타오피스텔 공덕동주민센터 ,37.55015945,126.9605255
4222,서울디자인고등학교 앞,37.54568481,126.9467697
4224,서부운전면허시험장,37.57892227,126.882164
4226,마포프레스티지자이 1,37.55152893,126.9466934
4233,코오롱아파트사거리,37.56303787,126.9214325
4234,에스테반,37.54891968,126.9595184
4238,상암한샘빌딩앞,37.57649231,126.898674
4239,성산2동 주민센터 ,37.56896973,126.9077988
4240,아현문화건강센터,37.55235291,126.9514771
4244,당인리발전소 공원 앞,37.54529572,126.9176483
4246,상수역새마을금고,37.54758835,126.9246445
4247,서울서부지방법원등기국앞,37.55184937,126.9547806
4248,신촌 교보빌딩,37.5560112,126.9403458
4251,공덕역 경의선숲길 커뮤니티센터,37.54161072,126.9537582
4253,홍은도담도서관,37.60169601,126.9491653
4255,래미안 루센티아 아파트 108동 앞,37.5751915,126.9176865
4262,서대문자연사박물관 입구,37.57540131,126.9354401
4264,홍남교 버스정류장,37.57675552,126.9282761
4265,안산초등학교 앞,37.57987976,126.952301
4266,국민연금공단충정로사옥,37.56184769,126.9641495
4267,서대문역 2번 출구,37.56619263,126.9660111
4269,연희IC 남측,37.56355667,126.9282761
4303,매헌역 2번출구앞 광역버스 정류장앞 22-297,37.47171783,127.038887
4304,서울고앞,37.48339462,127.0073624
4305,서일스포츠센터,37.49801636,127.0222244
4306,서래공원 앞,37.50150681,127.003479
4307,고투몰 gate 15옆,37.50723267,127.0094528
4309,서초케이트타운앞,37.4572258,127.0590057
4310,염곡동 염통골  입구,37.46155548,127.0499573
4312,반포미도2차아파트 옆,37.50320435,127.0065308
4313,반포종합운동장,37.49979782,126.9964676
4314,탑성마을 버스정거장 옆,37.45916748,127.0554428
4315,이투스교육 앞,37.48389053,127.0290527
4316,고속터미널 3번출구,37.50365829,127.0059433
4317,양재근린공원,37.47039795,127.0424118
4318,방배역 2번 출구,37.48116684,126.9975891
4319,삼성전자R&D어린이집 뒤,37.46559143,127.021843
4320,신영체르니 아파트,37.47901154,127.0414429
4322,서울추모공원 입구,37.45429993,127.0428314
4323,내곡도서관,37.45199966,127.0539169
4324,세화고등학교,37.50209427,126.9914703
4327,몽마르뜨공원입구,37.4928894,127.0026474
4329,SC제일은행 양재동지점 앞,37.48573685,127.0331574
4332,이수교차로,37.49817276,126.9844818
4353,코오롱디지털타워 3차앞,37.54655838,127.0499878
4360,르노삼성자동차 성수사업소 앞,37.54824448,127.0595779
4362,행당중학교 후문,37.5540123,127.0415497
4363,신금호역 2번출구 앞,37.55507278,127.0198898
4367,kt 행당빌딩 앞,37.55862045,127.0343552
4370,서울숲IT캐슬 앞,37.55141449,127.044754
4373,서울숲 지식산업센터,37.54127502,127.0484924
4377,우영테크노센터 앞,37.54332352,127.0597153
4381,더스페이스타워 앞,37.55140305,127.0463638
4382,페코텍글로벌허브빌딩 앞,37.54753494,127.0668259
4383,푸조비즈타워 앞,37.54808044,127.0646133
4406,장곡초등학교 앞,37.61745453,127.0484467
4408,돌곶이역 앞,37.61131287,127.0575943
4411,동산어린이공원 앞,37.60623932,127.0346603
4414,안암역 3번 출구,37.58625031,127.0309525
4415,미아초교버스승강장,37.61207962,127.0219803
4417,성북청소년문화의집,37.61566925,127.0087662
4418,종암동 동덕여대 제2생활관 앞,37.60108948,127.0333176
4419,성북구 한예종 캠퍼스 본관,37.60665131,127.0561829
4420,성북구 한예종 캠퍼스 별관,37.60289764,127.0584793
4452,삼성SDS,37.51633835,127.0998535
4453,위례중앙푸르지오 201동 앞,37.47434616,127.1432648
4454,위례 포레샤인 1809동 부근,37.48664474,127.1524429
4456,위례포레샤인 2310동 부근,37.4745636,127.136795
4457,아산병원 기숙사 부근,37.52478027,127.1091309
4458,가락2동주민센터 인근,37.49917603,127.1258926
4460,올림픽훼미리아파트 112동 앞,37.48807144,127.1186371
4461,한양3차아파트 3동 앞,37.50585175,127.1219406
4462,가락중학교 앞,37.50223541,127.1172867
4463,방이역 2번 출구,37.50801468,127.125946
4464,올림픽공원 북2문,37.52357483,127.1280441
4465,건영아파트앞 사거리,37.48245621,127.1246033
4467,한림연예예술고등학교,37.48488998,127.1327057
4468,가락1동 주민센터 2,37.49650955,127.1103287
4469,거여동 어울림아파트  102동앞,37.49198532,127.1437302
4472,송파파크데일 1단지 115동 건너편,37.49763107,127.159668
4473,마천금호어울림 1차 102동앞,37.49808884,127.1542969
4474,가락현대 1차 11동 앞,37.49146652,127.1266403
4475,송파파인타운 4단지 403동,37.48174286,127.1287842
4478,문정근린공원2,37.4861145,127.1266708
4479,문정중학교,37.48827362,127.1306839
4480,가락시장 남1문 사거리,37.49201584,127.1174545
4481,올림픽공원 북2문 2,37.52397537,127.1275101
4483,잠실나들목4,37.51632309,127.084343
4484,잠실나루역4번출구뒤,37.52080917,127.1036224
4485,잠실나루역 고가하부,37.52005386,127.1043091
4486,홈플러스 잠실점,37.51613998,127.103508
4488,문현중.고등학교 사이,37.48051071,127.128624
4490,송파파인타운 10단지 1005동,37.4777832,127.1320572
4491,장지역 1번출구,37.47953415,127.1267853
4493,마천사거리 2,37.49900436,127.1469421
4496,잠실 파크리오 120동 앞,37.51921082,127.1079407
4497,아시아선수촌아파트 교차로,37.50679016,127.0792694
4499,세양청마루 101동 앞,37.49236679,127.1365509
4500,풍납나들목,37.52865219,127.1086655
4507,신정제일시장,37.52124786,126.8549576
4508,유원목동아파트 앞,37.52109528,126.8732071
4509,서울영상고교 입구,37.52198029,126.8592835
4510,신정네거리역 교차로,37.52175903,126.8522873
4512,목동13_14단지 사거리,37.5140686,126.8699875
4514,목동성당 앞,37.52319717,126.8693008
4515,동문굿모닝탑,37.51481247,126.8611755
4516,신진빌라,37.53528214,126.8300095
4517,성보하이드로빌딩,37.52893829,126.8331223
4518,청기와빌딩,37.52011108,126.8447495
4519,양원보도육교,37.53924561,126.8237381
4520,대성유니드아파트,37.52091599,126.8409576
4522,신곡시장,37.51779556,126.8416138
4523,구립양천어르신요양센터,37.51351166,126.8268127
4526,목동아파트2단지 222동 앞,37.53968811,126.8749847
4527,목동신시가지아파트6단지,37.53684616,126.8847504
4528,양천구청역 1번출구,37.51292038,126.8667984
4530,방아다리어린이공원,37.53936005,126.8288651
4531,목동아파트 613동 앞,37.53315735,126.8840866
4532,목동현대아파트 후문 앞,37.5221405,126.8780594
4535,목동12단지아파트 관리소 앞,37.51412201,126.860405
4536,양천해누리체육공원,37.51174164,126.8738327
4537,서울남부지방검찰청 후문 ,37.52164078,126.8655548
4538,양천공영차고지,37.50922012,126.8371582
4539,목동7단지아파트 A상가,37.52624512,126.8657837
4541,갈산문화예술센터,37.51097488,126.8698425
4552,코레일유통본사,37.52617645,126.9019775
4553,당산삼성2차아파트,37.52762222,126.8986359
4555,대림우성2차아파트,37.49519348,126.900177
4556,리버뷰신안인스빌1차 후문,37.51374817,126.8885117
4557,리버뷰신안인스빌2차 후문,37.51288223,126.8902664
4558,대영중고 후문,37.50545502,126.9062653
4559,신길역 2번출구,37.51756287,126.9169846
4560,양평동성원아파트,37.53374481,126.8936539
4561,양평역 1번출구,37.52572632,126.8860016
4563,여의도 은하아파트,37.51850891,126.9344864
4564,63스퀘어,37.52070999,126.9396591
4565,영등포 신세계백화점,37.51803589,126.9036484
4566,대림성원상떼빌아파트,37.5038414,126.8961563
4567,한림대학교 강남성심병원 신관,37.49128342,126.90802
4568,영등포로터리,37.51874924,126.9122086
4569,힐스테이트클래시안아파트,37.50508881,126.9133453
4571,문래동롯데캐슬아파트,37.51800156,126.8845978
4573,두산위브아파트,37.51470184,126.9121399
4574,영등포시장역 포레나영등포,37.52341461,126.9054031
4575,대림동 e편한세상영등포아델포레,37.49582291,126.9083557
4576,보라매sk뷰 108동 앞,37.50160599,126.91745
4578,보라매sk뷰,37.50400543,126.9202805
4579,국회의사당 본관,37.5325737,126.9140472
4580,국회 3문,37.52974701,126.9131699
4581,국회 소통관,37.53050232,126.9128952
4582,국회도서관,37.53054047,126.9181747
4583,의정관,37.53214645,126.9174728
4584,국회 2문,37.52864075,126.9151077
4585,국회 6문,37.53271866,126.9179916
4588,양남사거리 2,37.52194977,126.8904953
4589,KRX한국거래소 1 ,37.52347946,126.9271164
4590,KRX한국거래소 2 ,37.52410507,126.9281082
4591,신길자이아파트,37.50601196,126.9158859
4592,신길우성4차아파트,37.51283264,126.9176331
4594,양평교 영등포대여소,37.53972626,126.8903656
4598,오목교 동측 지하보도,37.52364349,126.8818359
4599,대림우성아파트 사거리,37.49484634,126.9002914
4600,영등포구 총괄 우체국,37.52915192,126.8944778
4601,양평역 2번 출구 뒤,37.5255661,126.8858414
4602,숙명여대앞 버스정류소 주변,37.54498672,126.9643021
4603,한강GS에클라트 건너편 교통섬,37.53200531,126.9555588
4604,원효로다목적체육관 앞,37.5332222,126.9572372
4605,노들섬 다목적홀 동쪽  숲 앞,37.51758957,126.9592209
4607,국립중앙박물관 -용산가족공원 앞,37.52087784,126.9797134
4608,국립중앙박물관 정문 앞,37.52145767,126.9776764
4609,파크타워 104동 앞,37.52330017,126.9720612
4610,한남나인원 105동 앞,37.53591919,127.0054169
4611,국제루터교회 앞,37.54143906,127.0037613
4612,한남 준 J.FSS 앞,37.53749847,127.0008469
4613,서울갤러리아 앞,37.53599548,126.9994888
4615,크라운호텔앞 버스정류소,37.53030014,126.9913788
4616,신용산지하차도 앞,37.53248215,126.964119
4617,동원베네스트 건너편,37.52761078,126.9551163
4618,풍전아파트 건너편,37.53237915,126.9525299
4619,한강트럼프월드3차 앞,37.52301788,126.96241
4620,삼각지역 14번 출구 앞 교통섬 ,37.53528595,126.974083
4621,남산도서관 앞,37.55240631,126.9820175
4622,한강중학교 앞 버스정류장,37.5251503,126.9920883
4623,라인프랜즈이태원점 앞,37.53453064,126.9961929
4625,용산공원갤러리앞,37.5393219,126.9731903
4627,효창공원앞역 5번출구 옆,37.53851318,126.9635544
4629,한강초교보도육교 앞,37.52544022,126.9645996
4632,용산 푸르지오 파크타운 1단지 앞,37.52529526,126.9958344
4633,센트럴파크타워 앞,37.52703476,126.9661789
4634,이태원역 3번 출구,37.53440094,126.9946671
4636,용산구꿈나무종합타운 앞,37.53786087,126.9656525
4637,용산시티파크 101동 앞,37.52468109,126.9681931
4638,청파동삼거리 앞,37.54733658,126.9703827
4639,동빙고근린공원,37.51794052,126.9837036
4652,신사두산위브2차아파트앞,37.59931564,126.9075928
4653,불광역 9번 출구 맞은편,37.61156845,126.9304886
4657,본 서부병원 교차로 사거리,37.60049438,126.9221573
4658,녹번역1번출구앞,37.60176849,126.9354248
4659,신진과학기술고등학교 버스정류장 응암시장 방면 ,37.59750366,126.9199982
4663,불광역36호선 버스정류장 동명여고 방면 ,37.61326218,126.9278641
4665,응암역3번 출구 서부경찰서 방면 ,37.59967041,126.91716
4667,폭포동입구 교차로,37.62962723,126.9301148
4668,기자촌사거리,37.63390732,126.931778
4671,청구성심병원 앞,37.62087631,126.9197998
4672,준빌딩 앞,37.62205124,126.9195862
4674,녹번역e편한세상 캐슬 정문 앞,37.60034561,126.9314804
4676,갈현1동 주민센터,37.62360764,126.9168854
4677,백련산 SK뷰 아이파크 해모로 아파트 앞,37.59612656,126.9196243
4678,백련산로 녹번센트레빌 아파트 앞,37.59954453,126.9265366
4681,박석고개 은평소방서  앞,37.62794495,126.9197693
4683,은평 성모병원 사거리,37.63470078,126.9173584
4684,응암2동주민센터 버스정류장 영락중학교 방면 ,37.59586716,126.9234924
4685,DMC역 5번 출구 수색역 방향 ,37.57890701,126.9012985
4702,평창동 주민센터,37.60604858,126.9676361
4703,쌍용아파트2단지 정문,37.58131409,127.0126801
4705,웰니스센터 민방위교육장 앞 ,37.57752991,126.9891281
4707,청계3가 사거리,37.56855774,126.9921188
4708,조계사앞사거리,37.5721817,126.9828339
4709,천지인 오피스텔 앞,37.60469818,126.9645157
4710,자교교회 앞,37.58114624,126.9712372
4711,올림픽기념 국민생활관 로터리,37.58983612,126.9993439
4713,현대 뜨레비앙 아파트 앞,37.57528305,126.9906235
4715,돈의문 박물관 마을,37.56883621,126.9695511
4718,광화문역 6번출구 옆A,37.56993103,126.9764328
4719,종로문화원 건너편,37.57571411,126.9805069
4752,삼성사이버빌리지아파트,37.55891418,126.964859
4753,우리은행 서소문금융센터,37.56284332,126.9726181
4760,서울역 7번출구,37.55664444,126.9736404
4761,탐앤탐스 을지로3가점,37.56474304,126.9909515
4762,국제빌딩,37.56693268,126.9825821
